long,lat,n_cruce,id_codigo,fecha_inau,anio_inau,dom_orig,dom_norma,origen,observ,nro_nva,instala,horario,fecha_fina,id_usig,objeto,calle_nombre,calle_altura,barrio,comuna,codigo_postal,codigo_postal_argentino
-58.3693183994195,-34.6092407006523,1015.0,B-CR-01015,,,Paseo Colón Av. y La Rábida,,Coordenada,Av. Paseo Colón - Nueva Rábida (Cruce nuevo a inaugurar),4.0,TITILANTE A PEDIDO DE GCBA,Titilante por obra,Hasta la finalización de Obra de Paseo del Bajo- Dic 2018,1,CRUCE SEMAFORIZADO,PASEO COLON AV.,,Monserrat,Comuna 1,,
-58.367143698973706,-34.612145101192006,1031.0,B-CR-01031,,,Belgrano Av. y Huergo Ing. Av.,,Coordenada,Huergo entre Av. Belgrano y Venezuela  (provisorio),4.0,APAGADO A PEDIDO DE GCBA,Apagado por obra,Hasta la finalización de Obra de Paseo del Bajo- Abril 2027,2,CRUCE SEMAFORIZADO,BELGRANO AV.,,Monserrat,Comuna 1,,
-58.4024239994448,-34.5899069004317,1145.0,B-CR-01145,,,Laprida 1739,,Coordenada,Laprida -Salida de Bomberos,4.0,TITILANTE CON DEMANDA,Titilante 24hs.,,3,CRUCE SEMAFORIZADO,LAPRIDA,1739,Recoleta,Comuna 2,1425,C1425EKO
-58.381459099101,-34.6237979006986,2132.0,B-CR-02132,,,Lima y Cochabamba,,Coordenada,Lima-Cochabamba,4.0,TITILANTE A PEDIDO DE GCBA,Titilante 24hs.,,4,CRUCE SEMAFORIZADO,LIMA,,Constitucion,Comuna 1,,
-58.3663254992432,-34.6192394007805,2223.0,B-CR-02223,,,Huergo Ing. Av. y Calvo Carlos,,Coordenada,Huergo- Carlos Calvo,4.0,TITILANTE A PEDIDO DE GCBA,Titilante por obra,Hasta la finalización de Obra de Paseo del Bajo- Abril 2024,5,CRUCE SEMAFORIZADO,"HUERGO, ING. AV.",,Puerto Madero,Comuna 1,,
-58.3661934986488,-34.6204183010358,2224.0,B-CR-02224,,,Huergo Ing. Av. y Humberto 1º,,Coordenada,Huergo- Humberto 1°,4.0,TITILANTE A PEDIDO DE GCBA,Titilante por obra,Hasta la finalización de Obra de Paseo del Bajo- Abril 2026,6,CRUCE SEMAFORIZADO,"HUERGO, ING. AV.",,San Telmo,Comuna 1,,
-58.3796058988856,-34.627732700481,2338.0,B-CR-02338,,,Brasil Av. y Hornos Gral.,,Coordenada,Brasil entre Gral. Hornos y Bdo. De Irigoyen (Bajo Autopista),4.0,TITILANTE A PEDIDO DE GCBA,Titilante 24hs.,,7,CRUCE SEMAFORIZADO,BRASIL,,Constitucion,Comuna 1,,
-58.3677380435463,-34.6068496155036,3853.0,B-CR-03853,,,Huergo Ing. Av. y La Rábida ,,Coordenada,Huergo- La Rábida Sur (Sda. Comando),4.0,TITILANTE A PEDIDO DE GCBA,Titilante por obra,Hasta la finalización de Obra de Paseo del Bajo- Abril 2025,8,CRUCE SEMAFORIZADO,"HUERGO, ING. AV.",,San Nicolas,Comuna 1,,
-58.3680499990664,-34.6040700007841,3855.0,B-CR-03855,,,Madero Eduardo Av. y Sarmiento,,Coordenada,Madero Eduardo Av.-Sarmiento,4.0,TITILANTE POR OBRA,Titilante por obra,Hasta la finalización de Obra de Paseo del Bajo- Abril 2019,9,CRUCE SEMAFORIZADO,"MADERO, EDUARDO AV.",,San Nicolas,Comuna 1,,
-58.4002833992531,-34.6248808009111,5131.0,B-CR-05131,,,Alberti y Cochabamba,,Coordenada,Alberti-Cochabamba,4.0,TITILANTE NOCTURNO,Todos los días de 22:00 a 06:00hs.,,10,CRUCE SEMAFORIZADO,ALBERTI,,San Cristobal,Comuna 3,,
-58.407214998643894,-34.6231974009702,5132.0,B-CR-05132,,,La Rioja y Humberto 1º,,Coordenada,La Rioja-Humberto 1º,4.0,TITILANTE NOCTURNO,Todos los días de 22:00 a 06:00hs.,,11,CRUCE SEMAFORIZADO,LA RIOJA,,San Cristobal,Comuna 3,,
-58.3981955990197,-34.6218842011169,5135.0,B-CR-05135,,,Humberto 1º y Pichincha,,Coordenada,Humberto Iº-Pichincha,4.0,TITILANTE NOCTURNO,Todos los días de 22:00 a 06:00hs.,,12,CRUCE SEMAFORIZADO,HUMBERTO 1\u00b0,,San Cristobal,Comuna 3,,
-58.4017711986874,-34.6210302008895,5139.0,B-CR-05139,,,Calvo Carlos y Saavedra,,Coordenada,Calvo Carlos-Saavedra,4.0,TITILANTE NOCTURNO,Todos los días de 22:00 a 06:00hs.,,13,CRUCE SEMAFORIZADO,"CALVO, CARLOS",,San Cristobal,Comuna 3,,
-58.409219498640006,-34.6212564006618,5154.0,B-CR-05154,,,Estados Unidos y Urquiza Gral.,,Coordenada,Estados Unidos-Gral Urquiza,4.0,TITILANTE NOCTURNO,Todos los días de 22:00 a 06:00hs.,,14,CRUCE SEMAFORIZADO,ESTADOS UNIDOS,,San Cristobal,Comuna 3,,
-58.4043124987275,-34.6227284010781,5155.0,B-CR-05155,,,Catamarca y Humberto 1º,,Coordenada,Humberto Iº-Catamarca,4.0,TITILANTE NOCTURNO,Todos los días de 22:00 a 06:00hs.,,15,CRUCE SEMAFORIZADO,CATAMARCA,,San Cristobal,Comuna 3,,
-58.4091165992636,-34.6223858007944,5157.0,B-CR-05157,,,Calvo Carlos y Urquiza Gral.,,Coordenada,C.Calvo - Urquiza,4.0,TITILANTE NOCTURNO,Todos los días de 22:00 a 06:00hs.,,16,CRUCE SEMAFORIZADO,"CALVO, CARLOS",,San Cristobal,Comuna 3,,
-58.3985023987644,-34.620776700948504,5191.0,B-CR-05191,,,Calvo Carlos y Pichincha,,Coordenada,Calvo Carlos-Pichincha,4.0,TITILANTE NOCTURNO,Todos los días de 22:00 a 06:00hs.,,17,CRUCE SEMAFORIZADO,"CALVO, CARLOS",,San Cristobal,Comuna 3,,
-58.360274098511894,-34.6389919003578,8228.0,B-CR-08228,,,Don Pedro de Mendoza Av. y Palos,,Coordenada,Pedro de Mendoza-Palos,4.0,TITILANTE NOCTURNO,Todos los días de 22:00 a 06:00hs.,,19,CRUCE SEMAFORIZADO,DON PEDRO DE MENDOZA AV.,,Boca,Comuna 4,,
-58.3678752992206,-34.5992097009372,8929.0,B-CR-08929,,,Moreau de Justo Alicia Av. y Sánchez de Thompson M.,,Coordenada,Moreau de Justo Alicia Av.-Sánchez de Thompson M. (Viamonte),4.0,TITILANTE POR OBRA,Titilante por obra,Hasta la finalización de Obra de Paseo del Bajo- Abril 2019,20,CRUCE SEMAFORIZADO,"MOREAU DE JUSTO, ALICIA AV.",,Puerto Madero,Comuna 1,,
-58.366258098584204,-34.611841301192,8934.0,B-CR-08934,,,Moreau de Justo Alicia Av. 840,,Coordenada,Moreau de Justo Alicia Av.-Fte. Nº 840 (Altura Rivadavia),4.0,TITILANTE POR OBRA,Titilante por obra,Hasta la finalización de Obra de Paseo del Bajo- Abril 2020,21,CRUCE SEMAFORIZADO,"MOREAU DE JUSTO, ALICIA AV.",840,Puerto Madero,Comuna 1,1107,C1107AAR
-58.3662553990819,-34.6118233008908,8935.0,B-CR-08935,,,Moreau de Justo Alicia Av. 880,,Coordenada,Moreau de Justo Alicia Av.-Fte. Nº 880 (Altura H. Yrigoyen),4.0,TITILANTE POR OBRA,Titilante por obra,Hasta la finalización de Obra de Paseo del Bajo- Abril 2021,22,CRUCE SEMAFORIZADO,"MOREAU DE JUSTO, ALICIA AV.",880,Puerto Madero,Comuna 1,1107,C1107AAR
-58.366218999069204,-34.609460600692,8936.0,B-CR-08936,,,Moreau de Justo Alicia Av. 1020,,Coordenada,Moreau de Justo Alicia Av.-Fte. Nº 1020 (Altura Alsina Adolfo),4.0,TITILANTE POR OBRA,Titilante por obra,Hasta la finalización de Obra de Paseo del Bajo- Abril 2022,23,CRUCE SEMAFORIZADO,"MOREAU DE JUSTO, ALICIA AV.",1020,Puerto Madero,Comuna 1,1107,C1107AAV
-58.3663399993228,-34.6121300009368,8938.0,B-CR-08938,,,Moreau de Justo Alicia Av. y Villaflor Azucena,,Coordenada,Av. A. M. de Justo- A. Villaflor,4.0,TITILANTE A PEDIDO DE GCBA,Titilante por obra,Hasta la finalización de Obra de Paseo del Bajo- Abril 2021,24,CRUCE SEMAFORIZADO,"MOREAU DE JUSTO, ALICIA AV.",,Puerto Madero,Comuna 1,,
-58.3959169990596,-34.5998246007638,8940.0,B-CR-08940,,,Moreau de Justo Alicia Av. 13,,Coordenada,Av. A. M. de Justo- Alt. México,4.0,APAGADO A PEDIDO DE GCBA,Apagado por obra,Hasta la finalización de Obra de Paseo del Bajo- Abril 2023,25,CRUCE SEMAFORIZADO,"MOREAU DE JUSTO, ALICIA AV.",13,Balvanera,Comuna 3,1107,C1107AAA
-58.3659999986802,-34.6155600006297,8941.0,B-CR-08941,,,Moreau de Justo Alicia Av. y Chile,,Coordenada,Av. A. M. de Justo- P. Eyle,4.0,TITILANTE A PEDIDO DE GCBA,Titilante por obra,Hasta la finalización de Obra de Paseo del Bajo- Abril 2020,26,CRUCE SEMAFORIZADO,,,Puerto Madero,Comuna 1,,
-58.3674772985896,-34.6006685011192,8945.0,B-CR-08945,,,Moreau de Justo Alicia Av. 193,,Coordenada,Av. A. M. de Justo- Alt. San Juan,4.0,TITILANTE A PEDIDO DE GCBA,Titilante por obra,Hasta la finalización de Obra de Paseo del Bajo- Abril 2019,27,CRUCE SEMAFORIZADO,"MOREAU DE JUSTO, ALICIA AV.",193,Puerto Madero,Comuna 1,1107,C1107AAC
-58.365494298498795,-34.620345100680396,8954.0,B-CR-08954,,,Moreau de Justo Alicia Av. y Marie Langer,,Coordenada,Av. A. M. de Justo- M. Langer,4.0,TITILANTE A PEDIDO DE GCBA,Titilante por obra,Hasta la finalización de Obra de Paseo del Bajo- Abril 2022,28,CRUCE SEMAFORIZADO,,,Puerto Madero,Comuna 1,,
-58.4238728985687,-34.561967300885804,3016.0,B-CR-03016,,,Figueroa Alcorta Av. y Julio Argentino Noble,,Coordenada,Av. F. Alcorta- Int. Guerrico,4.0,TITILANTE NOCTURNO,Todos los días de 22:00 a 06:00hs.,,29,CRUCE SEMAFORIZADO,"FIGUEROA ALCORTA, PRES. AV.",,Palermo,Comuna 14,,
-58.4497748993085,-34.5453062008068,3017.0,B-CR-03017,,,Figueroa Alcorta Av. y Club G.E.B.A.,,Coordenada,Av. F. Alcorta- Club GEBA,4.0,TITILANTE NOCTURNO,Todos los días de 22:00 a 06:00hs.,,30,CRUCE SEMAFORIZADO,,,Belgrano,Comuna 13,,
-58.4274967994337,-34.5591745006516,3018.0,B-CR-03018,,,Figueroa Alcorta Av. y De los Ombúes Av.,,Coordenada,Av. F. Alcorta- Av. De los Ombues,4.0,TITILANTE NOCTURNO,Todos los días de 22:00 a 06:00hs.,,31,CRUCE SEMAFORIZADO,"FIGUEROA ALCORTA, PRES. AV.",,Palermo,Comuna 14,,
-58.4299660990997,-34.5572040005558,3019.0,B-CR-03019,,,Figueroa Alcorta Av. y Bunge Intendente,,Coordenada,Av. F. Alcorta- Int. Bunge,4.0,TITILANTE NOCTURNO,Todos los días de 22:00 a 06:00hs.,,32,CRUCE SEMAFORIZADO,"FIGUEROA ALCORTA, PRES. AV.",,Palermo,Comuna 14,,
-58.4375679990981,-34.5506454010726,3035.0,B-CR-03035,,,Figueroa Alcorta Av. y Juramento,,Coordenada,Av. F. Alcorta-Juramento,4.0,-,Titilante 24hs.,,33,CRUCE SEMAFORIZADO,"FIGUEROA ALCORTA, PRES. AV.",,Belgrano,Comuna 13,,
-58.4165908987891,-34.567685200636,3036.0,B-CR-03036,,,Figueroa Alcorta Av. 5076,,Coordenada,Av. F. Alcorta-Velódromo,4.0,-,Titilante 24hs.,,34,CRUCE SEMAFORIZADO,"FIGUEROA ALCORTA, PRES. AV.",5076,Palermo,Comuna 14,1426,C1426CBN
-58.402906198473794,-34.5743651006108,3037.0,B-CR-03037,,,Salguero Jerónimo y Chonino,,Coordenada,Salguero- Chonino,4.0,TITILANTE NOCTURNO,Lun a Jue de 23:00 a 06:00/Vie de 00:00 a 06:00/Sáb de 00:00 a 08:00/Dom y feriados de 23 a 08:00 hs.,,35,CRUCE SEMAFORIZADO,"SALGUERO, JERONIMO",,Palermo,Comuna 14,,
-58.4273351993227,-34.5728523008586,3125.0,B-CR-03125,,,Dorrego Av. y Cerviño,,Coordenada,Av. Dorrego- Av. Cerviño,4.0,TITILANTE NOCTURNO,Todos los días de 22:00 a 06:00hs.,,36,CRUCE SEMAFORIZADO,DORREGO AV.,,Palermo,Comuna 14,,
-58.4017676989483,-34.5731498011881,3733.0,B-CR-03733,,,Salguero y Padre Mujica,,Coordenada,Salguero -Padre Mujica,4.0,TITILANTE NOCTURNO,"Lun a Vie de 23:00 a 06:00/ Sab, Dom y Feriados 00:00 a 08:00 hs.",,37,CRUCE SEMAFORIZADO,,,Recoleta,Comuna 2,,
-58.3721825992431,-34.585715801205104,3866.0,B-CR-03866,,,Antártida Argentina Av. y luisoni,,Coordenada,Antártida Argentina y Ramos Mejía -Oni,4.0,TITILANTE POR OBRA,Titilante por obra,,38,CRUCE SEMAFORIZADO,ANTARTIDA ARGENTINA AV.,,Retiro,Comuna 1,,
-58.456993799234105,-34.560064200366895,3997.0,B-CR-03997,,,Vuelta de Obligado 2254  y ,,Coordenada,Vuelta de Obligado 2254- Salida de bomberos,4.0,TITILANTE CON DEMANDA,Titilante 24hs.,,39,CRUCE SEMAFORIZADO,,,Belgrano,Comuna 13,,
-58.50311439906711,-34.6095467012107,6042.0,B-CR-06042,,,Chivilcoy Av. y Nogoyá ,,Coordenada,Chivilcoy-Nogoya,4.0,TITILANTE NOCTURNO,Todos los días de 22:00 a 06:00hs.,,40,CRUCE SEMAFORIZADO,CHIVILCOY,,Villa Devoto,Comuna 11,,
-58.512056498903505,-34.598108601058804,6269.0,B-CR-06269,,,Bahía Blanca y Pareja,,Coordenada,Bahia Blanca- Pareja- Fernandez de Enciso,4.0,TITILANTE 24 HS EXCEPTO EN HORARIO ESCOLAR,En funcionamiento: Lun a Vie de 07:45 a 08:10/ 12:00 a 13:15/ 17:15 a 00:00 hs. / Sábado y Domingo: Titilante 24 hs.,,41,CRUCE SEMAFORIZADO,BAHIA BLANCA,,Villa Devoto,Comuna 11,,
-58.52264269940989,-34.5988676003977,6292.0,B-CR-06292,,,Mosconi Gral. Av. y Paz Gral. Av.,,Coordenada,Av. Mosconi-Av. Gral. Paz (Peatonal),4.0,TITILANTE NOCTURNO,Todos los días de 22:00 a 06:00hs.,,42,CRUCE SEMAFORIZADO,MOSCONI GENERAL AV.,,Villa Devoto,Comuna 11,,
-58.472069198923705,-34.607893200483105,6344.0,B-CR-06344,,,Camarones y Gavilán ,,Coordenada,Gavilan-Camarones,4.0,TITILANTE NOCTURNO,Todos los días de 22:00 a 06:00hs.,,43,CRUCE SEMAFORIZADO,CAMARONES,,Villa Gral. Mitre,Comuna 11,,
-58.471282499032405,-34.6089021006081,6345.0,B-CR-06345,,,Magariños Cervantes A. y Gavilán ,,Coordenada,Gavilan-A.M.Cervantes,4.0,TITILANTE NOCTURNO,Todos los días de 22:00 a 06:00hs.,,44,CRUCE SEMAFORIZADO,"MAGARI\u00d1OS CERVANTES, A.",,Villa Gral. Mitre,Comuna 11,,
-58.4693655987195,-34.609324200561105,6347.0,B-CR-06347,,,Boyacá Av. y Díaz César Gral.,,Coordenada,Boyaca-Cesar Diaz,4.0,TITILANTE NOCTURNO,Todos los días de 22:00 a 06:00hs.,,45,CRUCE SEMAFORIZADO,BOYACA,,Villa Gral. Mitre,Comuna 11,,
-58.491897098948606,-34.5676901006519,7009.0,B-CR-07009,,,Iberá y Capdevila,,Coordenada,Iberá - Capdevila,4.0,TITILANTE NOCTURNO,Todos los días de 22:00 a 06:00hs.,,46,CRUCE SEMAFORIZADO,IBERA,,Villa Urquiza,Comuna 12,,
-58.49104879937779,-34.5688050010421,7011.0,B-CR-07011,,,Capdevila y Quesada,,Coordenada,Capdevila - Quesada,4.0,TITILANTE NOCTURNO,Todos los días de 22:00 a 06:00hs.,,47,CRUCE SEMAFORIZADO,CAPDEVILA,,Villa Urquiza,Comuna 12,,
-58.493041598835894,-34.578174300717805,7041.0,B-CR-07041,,,Monroe Av. y Ceretti,,Coordenada,Monroe Av. - Ceretti,4.0,TITILANTE NOCTURNO,Todos los días de 22:00 a 06:00hs.,,48,CRUCE SEMAFORIZADO,MONROE,,Villa Urquiza,Comuna 12,,
-58.4715824994242,-34.5864087009844,7052.0,B-CR-07052,,,Combatientes de Malvinas Av. y Htal. Tornú,,Coordenada,Combatientes de Malvinas Av. - Htal. Tornu,4.0,TITILANTE NOCTURNO,Todos los días de 22:00 a 06:00hs.,,49,CRUCE SEMAFORIZADO,,,Parque Chas,Comuna 15,,
-58.47298019925321,-34.5833382011248,7053.0,B-CR-07053,,,Combatientes de Malvinas Av. y Llerena,,Coordenada,Combatientes de Malvinas Av. - Llerena,4.0,TITILANTE NOCTURNO,Todos los días de 22:00 a 06:00hs.,,50,CRUCE SEMAFORIZADO,COMBATIENTES DE MALVINAS AV.,,Parque Chas,Comuna 15,,
-58.464833399323304,-34.5940189005942,7060.0,B-CR-07060,,,Garmendia Av. y Montalvo,,Coordenada,Garmendia Av. - Montalvo,4.0,TITILANTE NOCTURNO,Todos los días de 22:00 a 06:00hs.,,51,CRUCE SEMAFORIZADO,GARMENDIA AV.,,Paternal,Comuna 15,,
-58.4633582991851,-34.58176200124419,7067.0,B-CR-07067,,,Roseti y Heredia,,Coordenada,Rosetti - Heredia,4.0,TITILANTE NOCTURNO,Todos los días de 22:00 a 06:00hs.,,52,CRUCE SEMAFORIZADO,ROSETI,,Villa Ortuzar,Comuna 15,,
-58.480579999070905,-34.5765200004036,7068.0,B-CR-07068,,,Juramento y Pacheco,,Coordenada,Juramento - Pacheco,4.0,TITILANTE NOCTURNO,Todos los días de 22:00 a 06:00hs.,,53,CRUCE SEMAFORIZADO,JURAMENTO,,Villa Urquiza,Comuna 12,,
-58.504150798420895,-34.5763149006589,7081.0,B-CR-07081,,,Artigas José G. Gral. y Larsen,,Coordenada,"Artigas, J.G., Gral. - Larsen",4.0,TITILANTE NOCTURNO,Todos los días de 22:00 a 06:00hs.,,54,CRUCE SEMAFORIZADO,"ARTIGAS, JOSE GERVASIO, GRAL.",,Villa Pueyrredon,Comuna 12,,
-58.485797398657,-34.5784013003779,7230.0,B-CR-07230,,,Mendoza y Bucarelli,,Coordenada,Mendoza - Bucarelli,4.0,TITILANTE NOCTURNO,Todos los días de 22:00 a 06:00hs.,,55,CRUCE SEMAFORIZADO,MENDOZA AV.,,Villa Urquiza,Comuna 12,,
-58.495650698458604,-34.5749628009728,7260.0,B-CR-07260,,,Ceretti y Nahuel Huapi,,Coordenada,Ceretti - Nahuel Huapi,4.0,TITILANTE NOCTURNO,Todos los días de 23:00 a 06:00hs.,,56,CRUCE SEMAFORIZADO,CERETTI,,Villa Urquiza,Comuna 12,,
-58.4991027990862,-34.5647246012403,7280.0,B-CR-07280,,,Larralde Crisólogo Av. y Andonaegui,,Coordenada,"Larralde, Crisólogo - Andonaegui",4.0,TITILANTE NOCTURNO,Todos los días de 22:00 a 06:00hs.,,57,CRUCE SEMAFORIZADO,"LARRALDE, CRISOLOGO AV.",,Saavedra,Comuna 12,,
-58.4794697983889,-34.5752372011939,7401.0,B-CR-07401,,,Combatientes de Malvinas Av. y Juramento,,Coordenada,Combatientes de Malvinas Av. - Juramento,4.0,TITILANTE NOCTURNO,Todos los días de 22:00 a 06:00hs.,,58,CRUCE SEMAFORIZADO,COMBATIENTES DE MALVINAS AV.,,Villa Urquiza,Comuna 12,,
-58.47831499945811,-34.5767456006776,7409.0,B-CR-07409,,,Combatientes de Malvinas y Echeverría,,Coordenada,Combatientes de Malvinas - Echeverria,4.0,TITILANTE NOCTURNO,Todos los días de 22:00 a 06:00hs.,,59,CRUCE SEMAFORIZADO,COMBATIENTES DE MALVINAS AV.,,Villa Urquiza,Comuna 12,,
-58.4760299983914,-34.5734400006604,7415.0,B-CR-07415,,,Juramento y Acha Mariano,,Coordenada,"Juramento - Acha, Mariano",4.0,TITILANTE NOCTURNO,Todos los días de 23:00 a 06:00hs.,,60,CRUCE SEMAFORIZADO,JURAMENTO,,Villa Urquiza,Comuna 12,,
-58.4742277986634,-34.5672435004414,7430.0,B-CR-07430,,,Monroe Av. y Estomba,,Coordenada,Monroe Av. - Tronador,4.0,TITILANTE NOCTURNO,Todos los días de 22:00 a 06:00hs.,,61,CRUCE SEMAFORIZADO,MONROE AV.,,Villa Urquiza,Comuna 12,,
-58.463901198657894,-34.5691376009826,7450.0,B-CR-07450,,,Sucre Antonio José de Mcal. y Conde,,Coordenada,"Sucre, Mariscal - Conde",4.0,TITILANTE NOCTURNO,Todos los días de 22:00 a 06:00hs.,,62,CRUCE SEMAFORIZADO,"SUCRE, ANTONIO JOSE DE, MCAL.",,Belgrano,Comuna 13,,
-58.4900557990833,-34.5621786007132,7530.0,B-CR-07530,,,Valdenegro y Núñez,,Coordenada,Valdenegro - Núñez,4.0,TITILANTE NOCTURNO,Todos los días de 22:00 a 06:00hs.,,63,CRUCE SEMAFORIZADO,VALDENEGRO,,Saavedra,Comuna 12,,
-58.487963298412296,-34.5707404011807,7580.0,B-CR-07580,,,Nahuel Huapi y Díaz Colodrero,,Coordenada,Nahuel Huapi - Díaz Colodrero,4.0,TITILANTE NOCTURNO,Todos los días de 22:00 a 06:00hs.,,64,CRUCE SEMAFORIZADO,NAHUEL HUAPI,,Villa Urquiza,Comuna 12,,
-58.4806855990294,-34.5666174007288,7613.0,B-CR-07613,,,Donado y Nahuel Huapi,,Coordenada,Donado - Nahuel Huapi - Ugarte,4.0,TITILANTE NOCTURNO,Todos los días de 23:00 a 06:00hs.,,65,CRUCE SEMAFORIZADO,DONADO,,Villa Urquiza,Comuna 12,,
-58.48623159846189,-34.562171501037696,7620.0,B-CR-07620,,,Acha Mariano y Pedraza Manuela,,Coordenada,"Acha, Mariano - Pedraza, Manuela",4.0,TITILANTE NOCTURNO,Todos los días de 22:00 a 06:00hs.,,66,CRUCE SEMAFORIZADO,"ACHA, MARIANO, GRAL.",,Villa Urquiza,Comuna 12,,
-58.4750080994127,-34.563168200711004,7734.0,B-CR-07734,,,Washington y Ugarte,,Coordenada,Washington - Ugarte,4.0,TITILANTE NOCTURNO,Todos los días de 22:00 a 06:00hs.,,67,CRUCE SEMAFORIZADO,WASHINGTON,,Coghlan,Comuna 12,,
-58.4186999985946,-34.578800000560996,3317.0,B-CR-03317,,,Av. Sarmiento 2710,,Coordenada,Av. Sarmiento- Fte. Entrada Rural,4.0,TITILANTE EN EVENTOS,Eventos: Si es de lunes a viernes de 00:01 a 06:00 hs. Sábados de 00:01 a 06:30 hs. Domingos de 00:01 a 08:00 hs.,,68,CRUCE SEMAFORIZADO,SARMIENTO AV.,2710,Palermo,Comuna 14,1425,C1425FGO
-58.453239498978604,-34.6188241008205,4785.0,B-CR-04785,,,Aranguren Juan F. Dr. y Biedma José,,Coordenada,Aranguren-Biedma,4.0,TITILANTE NOCTURNO,Todos los días de 22:00 a 06:00hs.,,69,CRUCE SEMAFORIZADO,"ARANGUREN, JUAN F., DR.",,Caballito,Comuna 6,,
-58.4369879991908,-34.621007400356696,5018.0,B-CR-05018,,,Riglos y Guayaquil,,Coordenada,Riglos - Guayaquil,4.0,TITILANTE NOCTURNO,Todos los días de 22:00 a 06:00hs.,,70,CRUCE SEMAFORIZADO,RIGLOS,,Caballito,Comuna 6,,
-58.444911298674704,-34.6205278011165,5020.0,B-CR-05020,,,Yerbal y García Lorca Federico,,Coordenada,Yerbal-Cucha Cucha,4.0,TITILANTE NOCTURNO,Todos los días de 22:00 a 06:00hs.,,71,CRUCE SEMAFORIZADO,YERBAL,,Caballito,Comuna 6,,
-58.41020849873139,-34.626296901233104,5128.0,B-CR-05128,,,24 de Noviembre y Cochabamba,,Coordenada,24 de Noviembre-Cochabamba,4.0,TITILANTE NOCTURNO,Todos los días de 22:00 a 06:00hs.,,72,CRUCE SEMAFORIZADO,24 DE NOVIEMBRE,,San Cristobal,Comuna 3,,
-58.4174440987574,-34.6271112008611,5142.0,B-CR-05142,,,Colombres y Cochabamba,,Coordenada,Colombres - Cochabamba,4.0,TITILANTE NOCTURNO,Todos los días de 22:00 a 06:00hs.,,73,CRUCE SEMAFORIZADO,COLOMBRES,,Boedo,Comuna 5,,
-58.4172019985463,-34.6280536011598,5143.0,B-CR-05143,,,Colombres y Constitución,,Coordenada,Constitución - Colombres,4.0,TITILANTE NOCTURNO,Todos los días de 22:00 a 06:00hs.,,74,CRUCE SEMAFORIZADO,COLOMBRES,,Boedo,Comuna 5,,
-58.41850399910751,-34.6272339012328,5174.0,B-CR-05174,,,Castro Barros y Cochabamba,,Coordenada,Cochabamba-Castro Barros,4.0,TITILANTE NOCTURNO,Todos los días de 22:00 a 06:00hs.,,75,CRUCE SEMAFORIZADO,CASTRO BARROS,,Boedo,Comuna 5,,
-58.4387151987395,-34.630076601145,5229.0,B-CR-05229,,,Del Barco Centenera y Zuviría,,Coordenada,Centenera-Zuviría,4.0,TITILANTE NOCTURNO,Todos los días de 22:00 a 06:00hs.,,76,CRUCE SEMAFORIZADO,BARCO CENTENERA DEL,,Parque Chacabuco,Comuna 7,,
-58.4434541988912,-34.631933500847,5230.0,B-CR-05230,,,Perón Eva Av. y Hortiguera,,Coordenada,Eva Perón-Hortiguera,4.0,TITILANTE NOCTURNO,Todos los días de 22:00 a 06:00hs.,,77,CRUCE SEMAFORIZADO,"PERON, EVA AV.",,Parque Chacabuco,Comuna 7,,
-58.4373626988281,-34.632103000972,5231.0,B-CR-05231,,,Del Barco Centenera y Estrada,,Coordenada,Centenera-Estrada,4.0,TITILANTE NOCTURNO,Todos los días de 22:00 a 06:00hs.,,78,CRUCE SEMAFORIZADO,BARCO CENTENERA DEL,,Parque Chacabuco,Comuna 7,,
-58.4252709990681,-34.6281216010007,5233.0,B-CR-05233,,,Cochabamba y Muñiz,,Coordenada,Cochabamba-Muñiz,4.0,TITILANTE NOCTURNO,Todos los días de 22:00 a 06:00hs.,,79,CRUCE SEMAFORIZADO,COCHABAMBA,,Boedo,Comuna 5,,
-58.440302499228494,-34.627657200722496,5242.0,B-CR-05242,,,Del Barco Centenera y Bonifacio José,,Coordenada,Centenera-Bonifacio,4.0,TITILANTE NOCTURNO,Todos los días de 22:00 a 06:00hs.,,80,CRUCE SEMAFORIZADO,BARCO CENTENERA DEL,,Caballito,Comuna 6,,
-58.44318399934179,-34.628080201090604,5247.0,B-CR-05247,,,Emilio Mitre  y  José Bonifacio,,Coordenada,Mitre-Bonifacio,4.0,TITILANTE NOCTURNO,Todos los días de 22:00 a 06:00hs.,,81,CRUCE SEMAFORIZADO,"MITRE, EMILIO",,Caballito,Comuna 6,,
-58.440178098656,-34.6335529008917,5248.0,B-CR-05248,,,Mitre Emilio y Estrada,,Coordenada,Emilio Mitre-Estrada,4.0,TITILANTE NOCTURNO,Todos los días de 22:00 a 06:00hs.,,82,CRUCE SEMAFORIZADO,"MITRE, EMILIO",,Parque Chacabuco,Comuna 7,,
-58.440933798528995,-34.632572500597895,5249.0,B-CR-05249,,,Mitre Emilio y Tejedor,,Coordenada,Emilio Mitre-Tejedor,4.0,TITILANTE NOCTURNO,Todos los días de 22:00 a 06:00hs.,,83,CRUCE SEMAFORIZADO,"MITRE, EMILIO",,Parque Chacabuco,Comuna 7,,
-58.431086099229795,-34.6209209005682,5302.0,B-CR-05302,,,Formosa y Doblas,,Coordenada,Formosa - Doblas,4.0,TITILANTE NOCTURNO,Todos los días de 22:00 a 06:00hs.,,84,CRUCE SEMAFORIZADO,FORMOSA,,Caballito,Comuna 6,,
-58.453446299418005,-34.6267755012217,5328.0,B-CR-05328,,,Curapaligüe Av. y Falcón Ramón L. Cnel.,,Coordenada,Falcón-Curapaligüe,4.0,TITILANTE NOCTURNO,Todos los días de 22:00 a 06:00hs.,,85,CRUCE SEMAFORIZADO,CURAPALIGUE,,Flores,Comuna 7,,
-58.456018698914605,-34.6307530009569,5331.0,B-CR-05331,,,Bonifacio José y Lautaro,,Coordenada,J. Bonifacio-Lautaro,4.0,TITILANTE NOCTURNO,Todos los días de 22:00 a 06:00hs.,,86,CRUCE SEMAFORIZADO,"BONIFACIO, JOSE",,Flores,Comuna 7,,
-58.461258198638106,-34.6323819005454,5427.0,B-CR-05427,,,Bonifacio José y Rivera Indarte,,Coordenada,Bonifacio - Rivera Indarte,4.0,TITILANTE NOCTURNO,Todos los días de 22:00 a 06:00hs.,,87,CRUCE SEMAFORIZADO,"BONIFACIO, JOSE",,Flores,Comuna 7,,
-58.4626368987022,-34.632811900479304,5428.0,B-CR-05428,,,Bonifacio José y Pedernera,,Coordenada,Bonifacio - Pedernera,4.0,TITILANTE NOCTURNO,Todos los días de 22:00 a 06:00hs.,,88,CRUCE SEMAFORIZADO,"BONIFACIO, JOSE",,Flores,Comuna 7,,
-58.4639530989171,-34.6332125003774,5430.0,B-CR-05430,,,Varela y Bonifacio José,,Coordenada,Varela-Bonifacio,4.0,TITILANTE NOCTURNO,Todos los días de 22:00 a 06:00hs.,,89,CRUCE SEMAFORIZADO,VARELA,,Flores,Comuna 7,,
-58.4705300994679,-34.6325903010163,5431.0,B-CR-05431,,,Falcón Ramón L.Cnel. y Quirno,,Coordenada,Falcón-Quirno,4.0,TITILANTE NOCTURNO,Todos los días de 22:00 a 06:00hs.,,90,CRUCE SEMAFORIZADO,"FALCON, RAMON L.,CNEL.",,Flores,Comuna 7,,
-58.465288899049504,-34.6336196012254,5433.0,B-CR-05433,,,Bonifacio  y  Culpina.,,Coordenada,Bonifacio - Culpina,4.0,TITILANTE NOCTURNO,Todos los días de 22:00 a 06:00hs.,,91,CRUCE SEMAFORIZADO,"BONIFACIO, JOSE",,Flores,Comuna 7,,
-58.46949719925961,-34.6349067008029,5491.0,B-CR-05491,,,Bonifacio José y Quirno,,Coordenada,J.Bonifacio-Quirno,4.0,TITILANTE NOCTURNO,Todos los días de 22:00 a 06:00hs.,,92,CRUCE SEMAFORIZADO,"BONIFACIO, JOSE",,Flores,Comuna 7,,
-58.41457199941521,-34.627765000383604,5658.0,B-CR-05658,,,Constitución y Maza,,Coordenada,Constitucion - Maza,4.0,TITILANTE NOCTURNO,Todos los días de 22:00 a 06:00hs.,,93,CRUCE SEMAFORIZADO,CONSTITUCION,,Boedo,Comuna 5,,
-58.436586698616196,-34.6368715004981,5660.0,B-CR-05660,,,Castañares Av. y Cachimayo,,Coordenada,Castañares - Cachimayo,4.0,TITILANTE NOCTURNO,Todos los días de 22:00 a 06:00hs.,,94,CRUCE SEMAFORIZADO,CASTA\u00d1ARES AV.,,Parque Chacabuco,Comuna 7,,
-58.4107658994602,-34.6215476010337,5728.0,B-CR-05728,,,24 de Noviembre y Estados Unidos,,Coordenada,24 de Noviembre - Estados Unidos,4.0,TITILANTE NOCTURNO,Todos los días de 22:00 a 06:00hs.,,95,CRUCE SEMAFORIZADO,24 DE NOVIEMBRE,,San Cristobal,Comuna 3,,
-58.420517198937205,-34.6200568007012,5738.0,B-CR-05738,,,Castro y México,,Coordenada,Castro - México,4.0,TITILANTE NOCTURNO,Todos los días de 22:00 a 06:00hs.,,96,CRUCE SEMAFORIZADO,CASTRO,,Almagro,Comuna 5,,
-58.424163598403396,-34.6203375003517,5739.0,B-CR-05739,,,México y 33 Orientales,,Coordenada,México-33 Orientales,4.0,TITILANTE NOCTURNO,Todos los días de 22:00 a 06:00hs.,,97,CRUCE SEMAFORIZADO,MEXICO,,Almagro,Comuna 5,,
-58.42053319867579,-34.6188364006287,5832.0,B-CR-05832,,,Castro y Agrelo,,Coordenada,Agrelo - Castro,4.0,TITILANTE NOCTURNO,Todos los días de 22:00 a 06:00hs.,,98,CRUCE SEMAFORIZADO,CASTRO,,Almagro,Comuna 5,,
-58.4145253994427,-34.6142747010733,5834.0,B-CR-05834,,,Moreno M. y Virrey Liniers,,Coordenada,Moreno-Virrey Liniers,4.0,TITILANTE NOCTURNO,Todos los días de 22:00 a 06:00hs.,,99,CRUCE SEMAFORIZADO,MORENO,,Almagro,Comuna 5,,
-58.4224578991962,-34.6189803003791,5842.0,B-CR-05842,,,Bocayuva Quintino y Agrelo,,Coordenada,Agrelo - Q. Bocayuva,4.0,TITILANTE NOCTURNO,Todos los días de 22:00 a 06:00hs.,,100,CRUCE SEMAFORIZADO,"BOCAYUVA, QUINTINO",,Almagro,Comuna 5,,
-58.415351798536996,-34.618363600812,5846.0,B-CR-05846,,,Maza y Agrelo,,Coordenada,Agrelo - Maza,4.0,TITILANTE NOCTURNO,Todos los días de 22:00 a 06:00hs.,,101,CRUCE SEMAFORIZADO,MAZA,,Almagro,Comuna 5,,
-58.4255861988635,-34.6121247011587,5934.0,B-CR-05934,,,Lezica y Rawson,,Coordenada,Lezica - Rawson,4.0,TITILANTE NOCTURNO,Todos los días de 22:00 a 06:00hs.,,102,CRUCE SEMAFORIZADO,LEZICA,,Almagro,Comuna 5,,
-58.4259740984038,-34.6148773008923,5936.0,B-CR-05936,,,Yrigoyen Hipólito y Marmol José,,Coordenada,Hipólito Yrigoyen-José Mármol,4.0,TITILANTE NOCTURNO,Todos los días de 22:00 a 06:00hs.,,103,CRUCE SEMAFORIZADO,"YRIGOYEN, HIPOLITO AV.",,Almagro,Comuna 5,,
-58.432107798846204,-34.6149724004596,5945.0,B-CR-05945,,,Yerbal y Otamendi,,Coordenada,Yerbal-Otamendi,4.0,TITILANTE NOCTURNO,Todos los días de 22:00 a 06:00hs.,,104,CRUCE SEMAFORIZADO,YERBAL,,Caballito,Comuna 6,,
-58.4145736988676,-34.6093632008666,5998.0,B-CR-05998,,,Mitre Bartolomé y Sánchez de Bustamante,,Coordenada,Mitre Bartolome - Sanchez de Bustamante,4.0,TITILANTE NOCTURNO,Todos los días de 22:00 a 06:00hs.,,105,CRUCE SEMAFORIZADO,"MITRE, BARTOLOME",,Balvanera,Comuna 3,,
-58.46224479883411,-34.6300808010084,6737.0,B-CR-06737,,,R.L.Falcon  y  Rivera Indate.,,Coordenada,Falcon - Indarte,4.0,TITILANTE NOCTURNO,Todos los días de 22:00 a 06:00hs.,,106,CRUCE SEMAFORIZADO,,,Flores,Comuna 7,,
-58.40343849906,-34.64803910107889,8755.0,B-CR-08755,Febrero,2017.0,"Alcorta, Amancio Av.  y  Monteagudo","ALCORTA, AMANCIO AV. y MONTEAGUDO",Coordenada /Domicilio,A.Alcorta - Monteagudo,4.0,TITILANTE NOCTURNO,Todos los días de 18:00 a 07:00hs.,,107,CRUCE SEMAFORIZADO,"ALCORTA, AMANCIO AV.",,Barracas,Comuna 4,,
-58.446131598944994,-34.6444545009211,8828.0,B-CR-08828,,,Av. Castañares y Bonorino Esteban,,Coordenada,Av. Castañares-Bonorino Esteban,4.0,TITILANTE NOCTURNO,Todos los días de 21:00 a 07:00hs.,,108,CRUCE SEMAFORIZADO,CASTA\u00d1ARES AV.,,Flores,Comuna 7,,
-58.445609799001204,-34.6438418009664,8829.0,B-CR-08829,,,Av. Castañares 2237,,Coordenada,Av. Castañares-Salida Terminal Línea 26 (demanda Linea),4.0,TITILANTE CON DEMANDA,Titilante 24hs.,,109,CRUCE SEMAFORIZADO,CASTA\u00d1ARES AV.,2237,Flores,Comuna 7,,
-58.4749691988245,-34.645214801114,9420.0,B-CR-09420,,,Av. Lacarra y Bilbao Francisco,,Coordenada,Av. Lacarra- Bilbao Francisco,4.0,TITILANTE NOCTURNO,Todos los días de 22:00 a 07:00hs.,,110,CRUCE SEMAFORIZADO,LACARRA AV.,,Parque Avellaneda,Comuna 9,,
-58.4702331989153,-34.6889014007761,9467.0,B-CR-09467,,,Corrales y Cañada de Gómez,,Coordenada,Corrales-Cañada de Gómez,4.0,TITILANTE NOCTURNO,Todos los días de 22:00 a 06:00hs.,,111,CRUCE SEMAFORIZADO,CORRALES,,Villa Riachuelo,Comuna 8,,
-58.461519998510504,-34.6428400012052,9547.0,B-CR-09547,,,Av. Lafuente y Rotonda Plaza de los Virreyes,,Coordenada,Av. Lafuente-Rotonda Plaza de los Virreyes (demanda Premetro),4.0,TITILANTE CON DEMANDA,Titilante 24hs.,,112,CRUCE SEMAFORIZADO,,,Flores,Comuna 7,,
-58.4956799990593,-34.6659300009652,9594.0,B-CR-09594,,,Av. De la Torre Lisandro y Cuartel de Bomberos,,Coordenada,Av. De la Torre Lisandro-Cuartel de Bomberos (demanda bombero),4.0,TITILANTE CON DEMANDA,Titilante 24hs.,,113,CRUCE SEMAFORIZADO,,,Mataderos,Comuna 9,,
-58.493609298421795,-34.6679310010937,9595.0,B-CR-09595,,,Av. Perón Eva y Lisandro de la Torre Av.,,Coordenada,Av. Perón Eva-Lisandro de la Torre Av.,4.0,TITILANTE NOCTURNO,Todos los días de 21:00 a 06:00hs.,,114,CRUCE SEMAFORIZADO,"PERON, EVA AV.",,Mataderos,Comuna 9,,
-58.4957416993213,-34.6700437003698,9596.0,B-CR-09596,,,Av. Perón Eva y Piedrabuena Av. ,,Coordenada,Av. Perón Eva-Piedrabuena Av.,4.0,TITILANTE NOCTURNO,Todos los días de 21:00 a 07:00hs.,,115,CRUCE SEMAFORIZADO,"PERON, EVA AV.",,Mataderos,Comuna 9,,
-58.4967098993195,-34.6736640010101,9600.0,B-CR-09600,,,Av. Argentina 6784,,Coordenada,Av. Argentina -Fte. Pirelli (demanda Peatonal) 6800,4.0,TITILANTE CON DEMANDA,Titilante 24hs.,,116,CRUCE SEMAFORIZADO,ARGENTINA AV.,6784,Villa Lugano,Comuna 8,1439,C1439HRU
-58.45699399896339,-34.6539149008839,9658.0,B-CR-09658,,,Av. Acosta Mariano y Castañares Av.,,Coordenada,Av. Acosta Mariano-Castañares Av.(Premetro),4.0,TITILANTE NOCTURNO,Todos los días de 21:00 a 07:00hs.,,117,CRUCE SEMAFORIZADO,"ACOSTA, MARIANO",,Flores,Comuna 7,,
-58.470162099365304,-34.6646543007496,9676.0,B-CR-09676,,,"Av. Escalada ""E"" y Castañares",,Coordenada,"Av. Escalada ""E""-Castañares (Fte. Indoamericano)",4.0,TITILANTE NOCTURNO,Todos los días de 21:00 a 07:00hs.,,118,CRUCE SEMAFORIZADO,ESCALADA AV.,,Villa Soldati,Comuna 8,,
-58.470162099365304,-34.6646543007496,9677.0,B-CR-09677,,,"Av. Escalada ""O"" y Castañares ",,Coordenada,"Av. Escalada ""O""-Castañares",4.0,TITILANTE NOCTURNO,Todos los días de 21:00 a 07:00hs.,,119,CRUCE SEMAFORIZADO,SIN NOMBRE OFICIAL (ALT. AV ESCALADA 2850),,Villa Soldati,Comuna 8,,
-58.440299998596004,-34.5985900009453,9722.0,B-CR-09722,,,Diaz Ana y Cuartel de Bomberos (e) S. de la Frontera,,Coordenada,Diaz Ana-Cuartel de Bomberos (e) S. de la Frontera-Cafayate(demanda bombero),4.0,TITILANTE CON DEMANDA,Titilante 24hs.,,120,CRUCE SEMAFORIZADO,,,Villa Crespo,Comuna 15,,
-58.484410998670505,-34.6808248004645,9730.0,B-CR-09730,,,Av. Piedrabuena y Aquino,,Coordenada,Av. Piedrabuena-Aquino (demanda Peatonal),4.0,TITILANTE CON DEMANDA,Titilante 24hs.,,121,CRUCE SEMAFORIZADO,PIEDRA BUENA AV.,,Villa Lugano,Comuna 8,,
-58.4491785988262,-34.6655552009723,9786.0,B-CR-09786,,,Av. Lacarra y Veracruz,,Coordenada,Av. Lacarra-Valparaiso-Veracruz(Premetro),4.0,TITILANTE CON DEMANDA,Titilante 24hs.,,122,CRUCE SEMAFORIZADO,LACARRA AV.,,Villa Soldati,Comuna 8,,
-58.4607399992699,-34.677450000722104,9787.0,B-CR-09787,,,Av. F. F. De La Cruz y Escalada Av.,,Coordenada,Av. F. F. De La Cruz-Escalada Av.(Premetro)(demanda Premetro),4.0,TITILANTE CON DEMANDA,Titilante 24hs.,,123,CRUCE SEMAFORIZADO,"FERNANDEZ DE LA CRUZ, F., GRAL. AV.",,Villa Lugano,Comuna 8,,
-58.4657615994789,-34.680284801140004,9797.0,B-CR-09797,,,Av. Larrazabal y Diaz Ana,,Coordenada,Av. Larrazabal- Ana Diaz,4.0,TITILANTE NOCTURNO,Todos los días de 22:00 a 05:00hs.,,124,CRUCE SEMAFORIZADO,LARRAZABAL AV.,,Villa Lugano,Comuna 8,,
-58.4623438993857,-34.682798901150996,9799.0,B-CR-09799,,,Av. Larrazabal y  Descalzi Nicolas,,Coordenada,Av. Larrazabal-Fte. Estac. Carrillo/Descalzi(Premetro),4.0,TITILANTE NOCTURNO,Todos los días de 19:00 a 07:00hs.,,125,CRUCE SEMAFORIZADO,LARRAZABAL AV.,,Villa Lugano,Comuna 8,,
-58.460289998425296,-34.6844525009813,9800.0,B-CR-09800,,,Av. Larrazabal y Ramírez Comodoro C.,,Coordenada,Av. Larrazabal-Ramírez Comodoro C.(Premetro),4.0,TITILANTE NOCTURNO,Todos los días de 19:00 a 07:00hs.,,126,CRUCE SEMAFORIZADO,LARRAZABAL AV.,,Villa Lugano,Comuna 8,,
-58.454052699184,-34.6831601011125,9914.0,B-CR-09914,,,Av. Cnel. Roca  y  Puerta 8 ,,Coordenada,Av. Cnel. Roca - Puerta 8 (demanda Premetro),4.0,TITILANTE CON DEMANDA,Titilante 24hs.,,127,CRUCE SEMAFORIZADO,,,Villa Lugano,Comuna 8,,
-58.456208399084396,-34.6855803010267,9945.0,B-CR-09945,,,Pista  y  Aprendizaje,,Coordenada,Pista - Aprendizaje,4.0,TITILANTE NOCTURNO,Todos los días de 17:30 a 08:00hs.,,128,CRUCE SEMAFORIZADO,,,Villa Riachuelo,Comuna 8,,
-58.432202599313,-34.650409433922704,9656.0,B-CR-09656,02-feb,2018.0,Av. Perito Moreno 1755,"MORENO, PERITO AV. 1755",Domicilio,Av. Perito Moreno 1755,3.0,TITILANTE NOCTURNO,Todos los días de 19:00 a 07:00hs.,,129,CRUCE SEMAFORIZADO,"MORENO, PERITO AV.",1755,Flores,Comuna 7,1437,C1437BSE
-58.3669021095006,-34.6215825863593,2266.0,B-CR-02266,,,Av. San Juan - Azopardo,,Domicilio,Av. San Juan - Azopardo,0.0,TITILANTE CON DEMANDA,Titilante 24hs.,,130,CRUCE SEMAFORIZADO,,,San Telmo,Comuna 1,,
-58.3694591984825,-34.609971201044104,1016.0,B-CR-01016,,,Paseo Colón Av. y Alsina Adolfo,,Coordenada,,4.0,,,,131,CRUCE SEMAFORIZADO,PASEO COLON AV.,,Monserrat,Comuna 1,,
-58.369560598404895,-34.6111718005296,1017.0,B-CR-01017,,,Paseo Colón Av. y Moreno,,Coordenada,,4.0,,,,132,CRUCE SEMAFORIZADO,PASEO COLON AV.,,Monserrat,Comuna 1,,
-58.3695340986998,-34.6122922009693,1018.0,B-CR-01018,,,Paseo Colón Av. y Belgrano Av.,,Coordenada,,4.0,,,,133,CRUCE SEMAFORIZADO,PASEO COLON AV.,,Monserrat,Comuna 1,,
-58.369492699167296,-34.6135782006777,1019.0,B-CR-01019,,,Paseo Colón Av. y Venezuela,,Coordenada,,4.0,,,,134,CRUCE SEMAFORIZADO,PASEO COLON AV.,,Monserrat,Comuna 1,,
-58.367959998405894,-34.6121901004182,1020.0,B-CR-01020,,,Belgrano Av. y Azopardo,,Coordenada,,4.0,,,,135,CRUCE SEMAFORIZADO,BELGRANO AV.,,Monserrat,Comuna 1,,
-58.3705617989361,-34.6123686005972,1021.0,B-CR-01021,,,Belgrano Av. y Balcarce,,Coordenada,,4.0,,,,136,CRUCE SEMAFORIZADO,BELGRANO AV.,,Monserrat,Comuna 1,,
-58.3672459985431,-34.611001100479605,1032.0,B-CR-01032,,,Huergo Ing. Av. y Moreno,,Coordenada,,4.0,,,,137,CRUCE SEMAFORIZADO,"HUERGO, ING. AV.",,Puerto Madero,Comuna 1,,
-58.3982786993262,-34.5865274006974,1101.0,B-CR-01101,,,Las Heras Av. y Laprida,,Coordenada,,4.0,,,,138,CRUCE SEMAFORIZADO,LAS HERAS GENERAL AV.,,Recoleta,Comuna 2,,
-58.39354179864839,-34.585619700962894,1102.0,B-CR-01102,,,Pueyrredón Av. y Azcuénaga,,Coordenada,,4.0,,,,139,CRUCE SEMAFORIZADO,PUEYRREDON AV.,,Recoleta,Comuna 2,,
-58.394973998797596,-34.5863476005452,1103.0,B-CR-01103,,,Pueyrredón Av. y Guido,,Coordenada,,4.0,,,,140,CRUCE SEMAFORIZADO,PUEYRREDON AV.,,Recoleta,Comuna 2,,
-58.396194399428396,-34.5869566008705,1104.0,B-CR-01104,,,Pueyrredón Av. y Vicente López,,Coordenada,,4.0,,,,141,CRUCE SEMAFORIZADO,PUEYRREDON AV.,,Recoleta,Comuna 2,,
-58.3972411992469,-34.587450800641896,1105.0,B-CR-01105,,,Pueyrredón Av. y Las Heras Av.,,Coordenada,,4.0,,,,142,CRUCE SEMAFORIZADO,PUEYRREDON AV.,,Recoleta,Comuna 2,,
-58.398769899465705,-34.588382500395106,1106.0,B-CR-01106,,,Pueyrredón Av. y Pacheco de Melo,,Coordenada,,4.0,,,,143,CRUCE SEMAFORIZADO,PUEYRREDON AV.,,Recoleta,Comuna 2,,
-58.39983179866421,-34.5891341004327,1107.0,B-CR-01107,,,Pueyrredón Av. y Peña,,Coordenada,,4.0,,,,144,CRUCE SEMAFORIZADO,PUEYRREDON AV.,,Recoleta,Comuna 2,,
-58.4003696992107,-34.5901801004765,1108.0,B-CR-01108,,,Pueyrredón Av. y French,,Coordenada,,4.0,,,,145,CRUCE SEMAFORIZADO,PUEYRREDON AV.,,Recoleta,Comuna 2,,
-58.401043699373105,-34.5915460009866,1109.0,B-CR-01109,,,Pueyrredón Av. y Juncal,,Coordenada,,4.0,,,,146,CRUCE SEMAFORIZADO,PUEYRREDON AV.,,Recoleta,Comuna 2,,
-58.4014957993939,-34.5925238004248,1110.0,B-CR-01110,,,Pueyrredón Av. y Beruti,,Coordenada,,4.0,,,,147,CRUCE SEMAFORIZADO,PUEYRREDON AV.,,Recoleta,Comuna 2,,
-58.400891299440495,-34.5898767007313,1111.0,B-CR-01111,,,Anchorena T. de Dr. y French,,Coordenada,,4.0,,,,148,CRUCE SEMAFORIZADO,"ANCHORENA, TOMAS MANUEL DE, DR.",,Recoleta,Comuna 2,,
-58.390074798944504,-34.5870670011733,1112.0,B-CR-01112,,,Alvear Av. y R.Ortiz,,Coordenada,,4.0,,,,149,CRUCE SEMAFORIZADO,ALVEAR AV.,,Recoleta,Comuna 2,,
-58.395858298588,-34.5885357004353,1113.0,B-CR-01113,,,Las Heras Av. y Azcuénaga,,Coordenada,,4.0,,,,150,CRUCE SEMAFORIZADO,LAS HERAS GENERAL AV.,,Recoleta,Comuna 2,,
-58.3939699994579,-34.5900675009596,1114.0,B-CR-01114,,,Las Heras Av. y Junín,,Coordenada,,4.0,,,,151,CRUCE SEMAFORIZADO,LAS HERAS GENERAL AV.,,Recoleta,Comuna 2,,
-58.3929363992879,-34.5909219009296,1115.0,B-CR-01115,,,Las Heras Av. y Ayacucho,,Coordenada,,4.0,,,,152,CRUCE SEMAFORIZADO,LAS HERAS GENERAL AV.,,Recoleta,Comuna 2,,
-58.3974770987373,-34.5928691009604,1116.0,B-CR-01116,,,Juncal y Uriburu,,Coordenada,,4.0,,,,153,CRUCE SEMAFORIZADO,JUNCAL,,Recoleta,Comuna 2,,
-58.397198098613394,-34.592951301125495,1117.0,B-CR-01117,,,Juncal y Junín,,Coordenada,,4.0,,,,154,CRUCE SEMAFORIZADO,JUNCAL,,Recoleta,Comuna 2,,
-58.3892107987051,-34.5876388012409,1118.0,B-CR-01118,,,Alvear Av. y Ayacucho,,Coordenada,,4.0,,,,155,CRUCE SEMAFORIZADO,ALVEAR AV.,,Recoleta,Comuna 2,,
-58.39875049868879,-34.592486600853,1119.0,B-CR-01119,,,Juncal y Azcuénaga,,Coordenada,,4.0,,,,156,CRUCE SEMAFORIZADO,JUNCAL,,Recoleta,Comuna 2,,
-58.3899928985637,-34.5883284005967,1120.0,B-CR-01120,,,Quintana Manuel Pres. Av. y Ayacucho,,Coordenada,,4.0,,,,157,CRUCE SEMAFORIZADO,"QUINTANA, MANUEL, PRES. AV.",,Recoleta,Comuna 2,,
-58.39302899899489,-34.5892085012226,1121.0,B-CR-01121,,,López Vicente y Junín,,Coordenada,,4.0,,,,158,CRUCE SEMAFORIZADO,"LOPEZ, VICENTE",,Recoleta,Comuna 2,,
-58.39777309840421,-34.5885152004458,1122.0,B-CR-01122,,,Larrea y Pacheco de Melo,,Coordenada,,4.0,,,,159,CRUCE SEMAFORIZADO,LARREA,,Recoleta,Comuna 2,,
-58.3888098990759,-34.5928094008323,1123.0,B-CR-01123,,,Juncal y Paraná,,Coordenada,,4.0,,,,160,CRUCE SEMAFORIZADO,JUNCAL,,Recoleta,Comuna 2,,
-58.396632098999206,-34.5894762012297,1124.0,B-CR-01124,,,Azcuénaga y Pacheco de Melo,,Coordenada,,4.0,,,,161,CRUCE SEMAFORIZADO,AZCUENAGA,,Recoleta,Comuna 2,,
-58.3999488986867,-34.5919916009571,1125.0,B-CR-01125,,,Larrea y Juncal,,Coordenada,,4.0,,,,162,CRUCE SEMAFORIZADO,LARREA,,Recoleta,Comuna 2,,
-58.4024446989866,-34.5909532007744,1126.0,B-CR-01126,,,Anchorena T. de Dr. y Juncal,,Coordenada,,4.0,,,,163,CRUCE SEMAFORIZADO,"ANCHORENA, TOMAS MANUEL DE, DR.",,Recoleta,Comuna 2,,
-58.395286099211,-34.5878658008086,1127.0,B-CR-01127,,,Azcuénaga y López Vicente,,Coordenada,,4.0,,,,164,CRUCE SEMAFORIZADO,AZCUENAGA,,Recoleta,Comuna 2,,
-58.3949164989905,-34.5893077008245,1128.0,B-CR-01128,,,Las Heras Av. y Uriburu,,Coordenada,,4.0,,,,165,CRUCE SEMAFORIZADO,LAS HERAS GENERAL AV.,,Recoleta,Comuna 2,,
-58.3919314987031,-34.5900637009588,1129.0,B-CR-01129,,,López Vicente y Ayacucho,,Coordenada,,4.0,,,,166,CRUCE SEMAFORIZADO,"LOPEZ, VICENTE",,Recoleta,Comuna 2,,
-58.388940598546895,-34.5908308004908,1130.0,B-CR-01130,,,Rodríguez Peña y Guido,,Coordenada,,4.0,,,,167,CRUCE SEMAFORIZADO,RODRIGUEZ PE\u00d1A,,Recoleta,Comuna 2,,
-58.389931198685,-34.591713200380696,1131.0,B-CR-01131,,,López Vicente y Rodríguez Peña,,Coordenada,,4.0,,,,168,CRUCE SEMAFORIZADO,"LOPEZ, VICENTE",,Recoleta,Comuna 2,,
-58.3879508990268,-34.591638900875395,1132.0,B-CR-01132,,,Montevideo y Guido,,Coordenada,,4.0,,,,169,CRUCE SEMAFORIZADO,MONTEVIDEO,,Recoleta,Comuna 2,,
-58.3949489993559,-34.5909037006858,1133.0,B-CR-01133,,,Pacheco de Melo y Junín,,Coordenada,,4.0,,,,170,CRUCE SEMAFORIZADO,"PACHECO DE MELO, JOSE ANDRES",,Recoleta,Comuna 2,,
-58.3939014988574,-34.5917908008757,1134.0,B-CR-01134,,,Pacheco de Melo y Ayacucho,,Coordenada,,4.0,,,,171,CRUCE SEMAFORIZADO,"PACHECO DE MELO, JOSE ANDRES",,Recoleta,Comuna 2,,
-58.3986113988859,-34.589849100696895,1135.0,B-CR-01135,,,Peña y Larrea,,Coordenada,,4.0,,,,172,CRUCE SEMAFORIZADO,PE\u00d1A,,Recoleta,Comuna 2,,
-58.3974384990997,-34.5905614007245,1136.0,B-CR-01136,,,Peña y Azcuénaga,,Coordenada,,4.0,,,,173,CRUCE SEMAFORIZADO,PE\u00d1A,,Recoleta,Comuna 2,,
-58.397121799385005,-34.59208890104,1137.0,B-CR-01137,,,Uriburu José Evaristo Pres. y French,,Coordenada,,4.0,,,,174,CRUCE SEMAFORIZADO,"URIBURU JOSE E., PRES.",,Recoleta,Comuna 2,,
-58.3957889986759,-34.5901805009617,1138.0,B-CR-01138,,,Uriburu José Evaristo Pres. y Pacheco de Melo,,Coordenada,,4.0,,,,175,CRUCE SEMAFORIZADO,"URIBURU JOSE E., PRES.",,Recoleta,Comuna 2,,
-58.396753399038,-34.5911444011171,1139.0,B-CR-01139,,,Uriburu José Evaristo Pres. y Peña,,Coordenada,,4.0,,,,176,CRUCE SEMAFORIZADO,"URIBURU JOSE E., PRES.",,Recoleta,Comuna 2,,
-58.39922129904429,-34.590832900546495,1140.0,B-CR-01140,,,Larrea y French,,Coordenada,,4.0,,,,177,CRUCE SEMAFORIZADO,LARREA,,Recoleta,Comuna 2,,
-58.3981104986044,-34.5914881011667,1141.0,B-CR-01141,,,Azcuénaga y French,,Coordenada,,4.0,,,,178,CRUCE SEMAFORIZADO,AZCUENAGA,,Recoleta,Comuna 2,,
-58.399503098980205,-34.594129401005695,1142.0,B-CR-01142,,,Azcuénaga y Arenales,,Coordenada,,4.0,,,,179,CRUCE SEMAFORIZADO,AZCUENAGA,,Recoleta,Comuna 2,,
-58.390948699015,-34.589200600843,1143.0,B-CR-01143,,,Ayacucho y Guido,,Coordenada,,4.0,,,,180,CRUCE SEMAFORIZADO,AYACUCHO,,Recoleta,Comuna 2,,
-58.4008985987331,-34.588481900362,1144.0,B-CR-01144,,,Laprida y Peña,,Coordenada,,4.0,,,,181,CRUCE SEMAFORIZADO,LAPRIDA,,Recoleta,Comuna 2,,
-58.396015898820295,-34.5918089009858,1146.0,B-CR-01146,,,Junín y Peña,,Coordenada,,4.0,,,,182,CRUCE SEMAFORIZADO,JUNIN,,Recoleta,Comuna 2,,
-58.3930856986461,-34.5938028008008,1150.0,B-CR-01150,,,Callao Av. y Juncal,,Coordenada,,4.0,,,,183,CRUCE SEMAFORIZADO,CALLAO AV.,,Recoleta,Comuna 2,,
-58.3928061994662,-34.5926368010918,1151.0,B-CR-01151,,,Callao Av. y Pacheco de Melo,,Coordenada,,4.0,,,,184,CRUCE SEMAFORIZADO,CALLAO AV.,,Recoleta,Comuna 2,,
-58.391886399407205,-34.5917436006452,1152.0,B-CR-01152,,,Callao Av. y Las Heras Av.,,Coordenada,,4.0,,,,185,CRUCE SEMAFORIZADO,CALLAO AV.,,Recoleta,Comuna 2,,
-58.39093299938111,-34.5908843010452,1153.0,B-CR-01153,,,Callao Av. y López Vicente,,Coordenada,,4.0,,,,186,CRUCE SEMAFORIZADO,CALLAO AV.,,Recoleta,Comuna 2,,
-58.38995939868361,-34.590000400366804,1154.0,B-CR-01154,,,Callao Av. y Guido,,Coordenada,,4.0,,,,187,CRUCE SEMAFORIZADO,CALLAO AV.,,Recoleta,Comuna 2,,
-58.3889955986401,-34.5891024009392,1155.0,B-CR-01155,,,Callao Av. y Quintana,,Coordenada,,4.0,,,,188,CRUCE SEMAFORIZADO,CALLAO AV.,,Recoleta,Comuna 2,,
-58.3881267985351,-34.588338700388896,1156.0,B-CR-01156,,,Callao Av. y Alvear Av.,,Coordenada,,4.0,,,,189,CRUCE SEMAFORIZADO,CALLAO AV.,,Recoleta,Comuna 2,,
-58.3870820988536,-34.5875240008651,1157.0,B-CR-01157,,,Callao Av. y Posadas,,Coordenada,,4.0,,,,190,CRUCE SEMAFORIZADO,CALLAO AV.,,Recoleta,Comuna 2,,
-58.38758879920871,-34.592815100682394,1158.0,B-CR-01158,,,Juncal y Uruguay,,Coordenada,,4.0,,,,191,CRUCE SEMAFORIZADO,JUNCAL,,Recoleta,Comuna 2,,
-58.3908533990734,-34.5925652011517,1159.0,B-CR-01159,,,Las Heras Av. y Rodríguez Peña,,Coordenada,,4.0,,,,192,CRUCE SEMAFORIZADO,"LAS HERAS, GENERAL",,Recoleta,Comuna 2,,
-58.3860975990584,-34.588107800594,1163.0,B-CR-01163,,,Posadas y Rodríguez Peña,,Coordenada,,4.0,,,,193,CRUCE SEMAFORIZADO,POSADAS,,Recoleta,Comuna 2,,
-58.3907527987173,-34.587707101216004,1164.0,B-CR-01164,,,Quintana Manuel Pres. Av. y Ortiz,,Coordenada,,4.0,,,,194,CRUCE SEMAFORIZADO,"QUINTANA, MANUEL, PRES. AV.",,Recoleta,Comuna 2,,
-58.392167998554605,-34.5939466003811,1165.0,B-CR-01165,,,Juncal y Rodríguez Peña,,Coordenada,,4.0,,,,195,CRUCE SEMAFORIZADO,JUNCAL,,Recoleta,Comuna 2,,
-58.387930499331,-34.5899714006825,1166.0,B-CR-01166,,,Quintana Manuel Pres. Av. y Rodríguez Peña,,Coordenada,,4.0,,,,196,CRUCE SEMAFORIZADO,"QUINTANA, MANUEL, PRES.",,Recoleta,Comuna 2,,
-58.38701879917149,-34.589061101128394,1167.0,B-CR-01167,,,Alvear Av. y Rodríguez Peña,,Coordenada,,4.0,,,,197,CRUCE SEMAFORIZADO,ALVEAR,,Recoleta,Comuna 2,,
-58.38593729854011,-34.589768200955504,1168.0,B-CR-01168,,,Alvear Av. y Montevideo,,Coordenada,,4.0,,,,198,CRUCE SEMAFORIZADO,ALVEAR,,Recoleta,Comuna 2,,
-58.386923499229,-34.5907579007751,1169.0,B-CR-01169,,,Quintana Manuel Pres. Av. y Montevideo,,Coordenada,,4.0,,,,199,CRUCE SEMAFORIZADO,"QUINTANA, MANUEL, PRES.",,Recoleta,Comuna 2,,
-58.3890122984081,-34.5924893006163,1170.0,B-CR-01170,,,López Vicente y Montevideo,,Coordenada,,4.0,,,,200,CRUCE SEMAFORIZADO,"LOPEZ, VICENTE",,Recoleta,Comuna 2,,
-58.38600629885,-34.5914789004124,1171.0,B-CR-01171,,,Quintana Manuel Pres. Av. y Parera,,Coordenada,,4.0,,,,201,CRUCE SEMAFORIZADO,"QUINTANA, MANUEL, PRES.",,Retiro,Comuna 1,,
-58.384223698852,-34.5908892007907,1172.0,B-CR-01172,,,Alvear Av. y Libertad,,Coordenada,,4.0,,,,202,CRUCE SEMAFORIZADO,ALVEAR AV.,,Retiro,Comuna 1,,
-58.3816341990389,-34.5928334009832,1173.0,B-CR-01173,,,Juncal y Pellegrini Carlos,,Coordenada,,4.0,,,,203,CRUCE SEMAFORIZADO,JUNCAL,,Retiro,Comuna 1,,
-58.3828339988916,-34.5928229006173,1174.0,B-CR-01174,,,Cerrito y Juncal,,Coordenada,,4.0,,,,204,CRUCE SEMAFORIZADO,CERRITO,,Retiro,Comuna 1,,
-58.384462098446,-34.5928005006163,1175.0,B-CR-01175,,,Juncal y Libertad,,Coordenada,,4.0,,,,205,CRUCE SEMAFORIZADO,JUNCAL,,Retiro,Comuna 1,,
-58.386505899255,-34.5928195008794,1176.0,B-CR-01176,,,Juncal y Talcahuano,,Coordenada,,4.0,,,,206,CRUCE SEMAFORIZADO,JUNCAL,,Retiro,Comuna 1,,
-58.390072998971604,-34.5942740009167,1177.0,B-CR-01177,,,Juncal y Montevideo,,Coordenada,,4.0,,,,207,CRUCE SEMAFORIZADO,JUNCAL,,Recoleta,Comuna 2,,
-58.3900356989545,-34.5932258007306,1178.0,B-CR-01178,,,Las Heras Av. y Montevideo,,Coordenada,,4.0,,,,208,CRUCE SEMAFORIZADO,"LAS HERAS, GENERAL",,Recoleta,Comuna 2,,
-58.3815595991084,-34.5915794006454,1179.0,B-CR-01179,,,Pellegrini Carlos y Arroyo,,Coordenada,,4.0,,,,209,CRUCE SEMAFORIZADO,"PELLEGRINI, CARLOS",,Retiro,Comuna 1,,
-58.381439699333804,-34.5903472010243,1180.0,B-CR-01180,,,Pellegrini Carlos y Posadas,,Coordenada,,4.0,,,,210,CRUCE SEMAFORIZADO,"PELLEGRINI, CARLOS",,Retiro,Comuna 1,,
-58.3785883989989,-34.5928639007237,1181.0,B-CR-01181,,,Juncal y Esmeralda,,Coordenada,,4.0,,,,211,CRUCE SEMAFORIZADO,JUNCAL,,Retiro,Comuna 1,,
-58.3831636992623,-34.5914849008917,1183.0,B-CR-01183,,,Alvear Av. y Cerrito,,Coordenada,,4.0,,,,213,CRUCE SEMAFORIZADO,ALVEAR AV.,,Retiro,Comuna 1,,
-58.3821699988805,-34.5900900009998,1184.0,B-CR-01184,,,9 de Julio Av. y Posadas,,Coordenada,,4.0,,,,214,CRUCE SEMAFORIZADO,9 DE JULIO AV.,,Retiro,Comuna 1,,
-58.3826959994315,-34.5900677008814,1185.0,B-CR-01185,,,Cerrito y Posadas,,Coordenada,,4.0,,,,215,CRUCE SEMAFORIZADO,CERRITO,,Retiro,Comuna 1,,
-58.38008239866671,-34.5928452004338,1186.0,B-CR-01186,,,Juncal y Suipacha,,Coordenada,,4.0,,,,216,CRUCE SEMAFORIZADO,JUNCAL,,Retiro,Comuna 1,,
-58.384930799132206,-34.5924389011671,1187.0,B-CR-01187,,,Quintana Manuel Pres. Av. 20,,Coordenada,,4.0,,,,217,CRUCE SEMAFORIZADO,"QUINTANA, MANUEL, PRES.",20,Retiro,Comuna 1,1014,C1014ACN
-58.3956456985247,-34.5934013006908,1188.0,B-CR-01188,,,Juncal y Ayacucho,,Coordenada,,4.0,,,,218,CRUCE SEMAFORIZADO,JUNCAL,,Recoleta,Comuna 2,,
-58.3822348993898,-34.592836900412806,1189.0,B-CR-01189,,,9 de Julio Av. y Juncal,,Coordenada,,4.0,,,,219,CRUCE SEMAFORIZADO,9 DE JULIO AV.,,Retiro,Comuna 1,,
-58.383550098478295,-34.5896034010597,1190.0,B-CR-01190,,,Posadas y Libertad,,Coordenada,,4.0,,,,220,CRUCE SEMAFORIZADO,POSADAS,,Retiro,Comuna 1,,
-58.3840955990921,-34.598079400634695,1200.0,B-CR-01200,,,Paraguay y Libertad,,Coordenada,,4.0,,,,221,CRUCE SEMAFORIZADO,PARAGUAY,,Retiro,Comuna 1,,
-58.38553929892671,-34.5981642004467,1201.0,B-CR-01201,,,Paraguay y Talcahuano,,Coordenada,,4.0,,,,222,CRUCE SEMAFORIZADO,PARAGUAY,,Retiro,Comuna 1,,
-58.386965298912,-34.5982684009955,1202.0,B-CR-01202,,,Paraguay y Uruguay,,Coordenada,,4.0,,,,223,CRUCE SEMAFORIZADO,PARAGUAY,,Recoleta,Comuna 2,,
-58.3882091994868,-34.5983551012432,1203.0,B-CR-01203,,,Paraguay y Paraná,,Coordenada,,4.0,,,,224,CRUCE SEMAFORIZADO,PARAGUAY,,Recoleta,Comuna 2,,
-58.389735499215796,-34.598478300573895,1204.0,B-CR-01204,,,Paraguay y Montevideo,,Coordenada,,4.0,,,,225,CRUCE SEMAFORIZADO,PARAGUAY,,Recoleta,Comuna 2,,
-58.391658098773696,-34.5986175009549,1205.0,B-CR-01205,,,Paraguay y Rodríguez Peña,,Coordenada,,4.0,,,,226,CRUCE SEMAFORIZADO,PARAGUAY,,Recoleta,Comuna 2,,
-58.39304639911511,-34.5987082004242,1206.0,B-CR-01206,,,Callao Av. y Paraguay ,,Coordenada,,4.0,,,,227,CRUCE SEMAFORIZADO,CALLAO AV.,,Recoleta,Comuna 2,,
-58.394552298456496,-34.5986994007801,1207.0,B-CR-01207,,,Paraguay y Riobamba,,Coordenada,,4.0,,,,228,CRUCE SEMAFORIZADO,PARAGUAY,,Recoleta,Comuna 2,,
-58.3958841991484,-34.5987049005724,1208.0,B-CR-01208,,,Paraguay y Ayacucho,,Coordenada,,4.0,,,,229,CRUCE SEMAFORIZADO,PARAGUAY,,Recoleta,Comuna 2,,
-58.39733459858729,-34.598567600391995,1209.0,B-CR-01209,,,Paraguay y Junín,,Coordenada,,4.0,,,,230,CRUCE SEMAFORIZADO,PARAGUAY,,Recoleta,Comuna 2,,
-58.3990425985876,-34.5982756010864,1210.0,B-CR-01210,,,Paraguay y Uriburu,,Coordenada,,4.0,,,,231,CRUCE SEMAFORIZADO,PARAGUAY,,Recoleta,Comuna 2,,
-58.384031398584796,-34.5991496009734,1211.0,B-CR-01211,,,Córdoba Av. y Libertad,,Coordenada,,4.0,,,,232,CRUCE SEMAFORIZADO,CORDOBA AV.,,Retiro,Comuna 1,,
-58.3854576984024,-34.5992169007359,1212.0,B-CR-01212,,,Córdoba Av. y Talcahuano,,Coordenada,,4.0,,,,233,CRUCE SEMAFORIZADO,CORDOBA AV.,,Retiro,Comuna 1,,
-58.3867988987154,-34.599340200668,1213.0,B-CR-01213,,,Córdoba Av. y Uruguay,,Coordenada,,4.0,,,,234,CRUCE SEMAFORIZADO,CORDOBA AV.,,San Nicolas,Comuna 1,,
-58.3881500990375,-34.5993434008529,1214.0,B-CR-01214,,,Córdoba Av. y Paraná,,Coordenada,,4.0,,,,235,CRUCE SEMAFORIZADO,CORDOBA AV.,,Recoleta,Comuna 2,,
-58.3896835984985,-34.5994269011735,1215.0,B-CR-01215,,,Córdoba Av. y Montevideo,,Coordenada,,4.0,,,,236,CRUCE SEMAFORIZADO,CORDOBA AV.,,Recoleta,Comuna 2,,
-58.39155819893829,-34.5995506011236,1216.0,B-CR-01216,,,Córdoba Av. y Rodríguez Peña,,Coordenada,,4.0,,,,237,CRUCE SEMAFORIZADO,CORDOBA AV.,,Recoleta,Comuna 2,,
-58.3929340993085,-34.5996357011837,1217.0,B-CR-01217,,,Córdoba Av. y Callao Av. ,,Coordenada,,4.0,,,,238,CRUCE SEMAFORIZADO,CORDOBA AV.,,Recoleta,Comuna 2,,
-58.3944111984537,-34.5996668009091,1218.0,B-CR-01218,,,Córdoba Av. y Riobamba,,Coordenada,,4.0,,,,239,CRUCE SEMAFORIZADO,CORDOBA AV.,,Balvanera,Comuna 3,,
-58.3958114984667,-34.599676500823605,1219.0,B-CR-01219,,,Córdoba Av. y Ayacucho,,Coordenada,,4.0,,,,240,CRUCE SEMAFORIZADO,CORDOBA AV.,,Recoleta,Comuna 2,,
-58.397199798973396,-34.5997022004734,1220.0,B-CR-01220,,,Córdoba Av. y Junín,,Coordenada,,4.0,,,,241,CRUCE SEMAFORIZADO,CORDOBA AV.,,Recoleta,Comuna 2,,
-58.398795098819505,-34.5997255004229,1221.0,B-CR-01221,,,Córdoba Av. y Uriburu José E. Pte.,,Coordenada,,4.0,,,,242,CRUCE SEMAFORIZADO,CORDOBA AV.,,Recoleta,Comuna 2,,
-58.3999230989433,-34.599601000844196,1222.0,B-CR-01222,,,Córdoba Av. y Pasteur,,Coordenada,,4.0,,,,243,CRUCE SEMAFORIZADO,CORDOBA AV.,,Recoleta,Comuna 2,,
-58.401071899307205,-34.5994554003649,1223.0,B-CR-01223,,,Córdoba Av. y Azcuénaga,,Coordenada,,4.0,,,,244,CRUCE SEMAFORIZADO,CORDOBA AV.,,Recoleta,Comuna 2,,
-58.402479798474296,-34.5990977004089,1224.0,B-CR-01224,,,Córdoba Av. y Larrea,,Coordenada,,4.0,,,,245,CRUCE SEMAFORIZADO,CORDOBA AV.,,Recoleta,Comuna 2,,
-58.403079598454,-34.5987994009649,1225.0,B-CR-01225,,,Córdoba Av. y Paso,,Coordenada,,4.0,,,,246,CRUCE SEMAFORIZADO,CORDOBA AV.,,Balvanera,Comuna 3,,
-58.40374629943771,-34.598427900365,1226.0,B-CR-01226,,,Pueyrredón Av. y Córdoba Av.,,Coordenada,,4.0,,,,247,CRUCE SEMAFORIZADO,PUEYRREDON AV.,,Recoleta,Comuna 2,,
-58.405631498991795,-34.5980399005152,1227.0,B-CR-01227,,,Córdoba Av. y Ecuador,,Coordenada,,4.0,,,,248,CRUCE SEMAFORIZADO,CORDOBA AV.,,Recoleta,Comuna 2,,
-58.4066397991871,-34.5980476010892,1228.0,B-CR-01228,,,Córdoba Av. y Jean Jaures,,Coordenada,,4.0,,,,249,CRUCE SEMAFORIZADO,CORDOBA AV.,,Balvanera,Comuna 3,,
-58.408185998939295,-34.5980828007717,1229.0,B-CR-01229,,,Córdoba Av. y Anchorena T. de Dr.,,Coordenada,,4.0,,,,250,CRUCE SEMAFORIZADO,CORDOBA AV.,,Balvanera,Comuna 3,,
-58.4075933991376,-34.5969873008952,1230.0,B-CR-01230,,,Anchorena T. de Dr. y Cabrera,,Coordenada,,4.0,,,,251,CRUCE SEMAFORIZADO,"ANCHORENA, TOMAS MANUEL DE, DR.",,Recoleta,Comuna 2,,
-58.407364098688,-34.5966245004997,1231.0,B-CR-01231,,,Paraguay y Anchorena T. de Dr.,,Coordenada,,4.0,,,,252,CRUCE SEMAFORIZADO,PARAGUAY,,Recoleta,Comuna 2,,
-58.406515199080104,-34.5969962004595,1232.0,B-CR-01232,,,Paraguay y Jean Jaures,,Coordenada,,4.0,,,,253,CRUCE SEMAFORIZADO,PARAGUAY,,Recoleta,Comuna 2,,
-58.405178398790596,-34.597226101021,1233.0,B-CR-01233,,,Paraguay y Ecuador,,Coordenada,,4.0,,,,254,CRUCE SEMAFORIZADO,PARAGUAY,,Recoleta,Comuna 2,,
-58.4034328989691,-34.597521200531695,1234.0,B-CR-01234,,,Pueyrredón Av. y Paraguay ,,Coordenada,,4.0,,,,255,CRUCE SEMAFORIZADO,PUEYRREDON AV.,,Recoleta,Comuna 2,,
-58.40210569917029,-34.5977537006736,1235.0,B-CR-01235,,,Paraguay y Larrea,,Coordenada,,4.0,,,,256,CRUCE SEMAFORIZADO,PARAGUAY,,Recoleta,Comuna 2,,
-58.4006843988229,-34.5980022004935,1236.0,B-CR-01236,,,Paraguay y Azcuénaga,,Coordenada,,4.0,,,,257,CRUCE SEMAFORIZADO,PARAGUAY,,Recoleta,Comuna 2,,
-58.403109899115,-34.5965460007049,1237.0,B-CR-01237,,,Pueyrredón Av. y Mansilla,,Coordenada,,4.0,,,,258,CRUCE SEMAFORIZADO,PUEYRREDON AV.,,Recoleta,Comuna 2,,
-58.4028619988612,-34.595797701198,1238.0,B-CR-01238,,,Pueyrredón Av. y Charcas,,Coordenada,,4.0,,,,259,CRUCE SEMAFORIZADO,PUEYRREDON AV.,,Recoleta,Comuna 2,,
-58.404174799123204,-34.5952325008862,1239.0,B-CR-01239,,,Charcas  y Ecuador,,Coordenada,,4.0,,,,260,CRUCE SEMAFORIZADO,CHARCAS,,Recoleta,Comuna 2,,
-58.40161019850039,-34.5963226008226,1240.0,B-CR-01240,,,Alvear Marcelo T.de y Larrea,,Coordenada,,4.0,,,,261,CRUCE SEMAFORIZADO,"ALVEAR, MARCELO T. DE",,Recoleta,Comuna 2,,
-58.381436099001704,-34.5966832008673,1241.0,B-CR-01241,,,Pellegrini Carlos y Alvear Marcelo T.,,Coordenada,,4.0,,,,262,CRUCE SEMAFORIZADO,"PELLEGRINI, CARLOS",,Retiro,Comuna 1,,
-58.404584798932504,-34.5960636005719,1242.0,B-CR-01242,,,Ecuador y Mansilla,,Coordenada,,4.0,,,,263,CRUCE SEMAFORIZADO,ECUADOR,,Recoleta,Comuna 2,,
-58.406097998420805,-34.5941977007313,1243.0,B-CR-01243,,,Anchorena T. de Dr. y Charcas,,Coordenada,,4.0,,,,264,CRUCE SEMAFORIZADO,"ANCHORENA, TOMAS MANUEL DE, DR.",,Recoleta,Comuna 2,,
-58.382669898695205,-34.596778900383896,1244.0,B-CR-01244,,,Cerrito y Alvear Marcelo T.,,Coordenada,,4.0,,,,265,CRUCE SEMAFORIZADO,CERRITO,,Retiro,Comuna 1,,
-58.3841697993674,-34.5969007006967,1245.0,B-CR-01245,,,Alvear Marcelo T.de y Libertad,,Coordenada,,4.0,,,,266,CRUCE SEMAFORIZADO,"ALVEAR, MARCELO T. DE",,Retiro,Comuna 1,,
-58.38566279845139,-34.5969624006356,1246.0,B-CR-01246,,,Alvear Marcelo T.de y Talcahuano,,Coordenada,,4.0,,,,267,CRUCE SEMAFORIZADO,"ALVEAR, MARCELO T. DE",,Retiro,Comuna 1,,
-58.3961024991383,-34.597298000650895,1247.0,B-CR-01247,,,Alvear Marcelo T.de y Ayacucho,,Coordenada,,4.0,,,,268,CRUCE SEMAFORIZADO,"ALVEAR, MARCELO T. DE",,Recoleta,Comuna 2,,
-58.39754139884,-34.5972142004577,1248.0,B-CR-01248,,,Alvear Marcelo T.de y Junín,,Coordenada,,4.0,,,,269,CRUCE SEMAFORIZADO,"ALVEAR, MARCELO T. DE",,Recoleta,Comuna 2,,
-58.3947811984515,-34.5972575007063,1249.0,B-CR-01249,,,Alvear Marcelo T.de y Riobamba,,Coordenada,,4.0,,,,270,CRUCE SEMAFORIZADO,"ALVEAR, MARCELO T. DE",,Recoleta,Comuna 2,,
-58.3870536992791,-34.5970413006261,1250.0,B-CR-01250,,,Alvear Marcelo T.de y Uruguay,,Coordenada,,4.0,,,,271,CRUCE SEMAFORIZADO,"ALVEAR, MARCELO T. DE",,Retiro,Comuna 1,,
-58.388304299407,-34.5970957008462,1251.0,B-CR-01251,,,Alvear Marcelo T.de y Paraná,,Coordenada,,4.0,,,,272,CRUCE SEMAFORIZADO,"ALVEAR, MARCELO T. DE",,Recoleta,Comuna 2,,
-58.3898013994393,-34.5971825011136,1252.0,B-CR-01252,,,Alvear Marcelo T.de y Montevideo,,Coordenada,,4.0,,,,273,CRUCE SEMAFORIZADO,"ALVEAR, MARCELO T. DE",,Recoleta,Comuna 2,,
-58.3918101993451,-34.5972132005897,1253.0,B-CR-01253,,,Alvear Marcelo T.de y Rodríguez Peña,,Coordenada,,4.0,,,,274,CRUCE SEMAFORIZADO,"ALVEAR, MARCELO T. DE",,Recoleta,Comuna 2,,
-58.405118499235705,-34.5933253011516,1254.0,B-CR-01254,,,Santa Fe Av. y Anchorena T. de Dr.,,Coordenada,,4.0,,,,275,CRUCE SEMAFORIZADO,SANTA FE AV.,,Recoleta,Comuna 2,,
-58.403609798758104,-34.594067800504796,1255.0,B-CR-01255,,,Santa Fe Av. y Ecuador,,Coordenada,,4.0,,,,276,CRUCE SEMAFORIZADO,SANTA FE AV.,,Recoleta,Comuna 2,,
-58.40235369917149,-34.594428500667604,1256.0,B-CR-01256,,,Santa Fe Av. y Pueyrredón,,Coordenada,,4.0,,,,277,CRUCE SEMAFORIZADO,SANTA FE AV.,,Recoleta,Comuna 2,,
-58.40112419882279,-34.594762600599104,1257.0,B-CR-01257,,,Santa Fe Av. y Larrea,,Coordenada,,4.0,,,,278,CRUCE SEMAFORIZADO,SANTA FE AV.,,Recoleta,Comuna 2,,
-58.3998815989118,-34.5950995010918,1258.0,B-CR-01258,,,Santa Fe Av. y Azcuénaga,,Coordenada,,4.0,,,,279,CRUCE SEMAFORIZADO,SANTA FE AV.,,Recoleta,Comuna 2,,
-58.39852289944321,-34.5953839008516,1259.0,B-CR-01259,,,Santa Fe Av. y Uriburu Jose E. Pte.,,Coordenada,,4.0,,,,280,CRUCE SEMAFORIZADO,SANTA FE AV.,,Recoleta,Comuna 2,,
-58.3973640994183,-34.595547000675396,1260.0,B-CR-01260,,,Santa Fe Av. y Junín,,Coordenada,,4.0,,,,281,CRUCE SEMAFORIZADO,SANTA FE AV.,,Recoleta,Comuna 2,,
-58.396108398470794,-34.595735800802004,1261.0,B-CR-01261,,,Santa Fe Av. y Ayacucho,,Coordenada,,4.0,,,,282,CRUCE SEMAFORIZADO,SANTA FE AV.,,Recoleta,Comuna 2,,
-58.3946918988256,-34.5957921007917,1262.0,B-CR-01262,,,Santa Fe Av. y Riobamba,,Coordenada,,4.0,,,,283,CRUCE SEMAFORIZADO,SANTA FE AV.,,Recoleta,Comuna 2,,
-58.3933276993353,-34.5958718011279,1263.0,B-CR-01263,,,Santa Fe Av. y Callao Av.,,Coordenada,,4.0,,,,284,CRUCE SEMAFORIZADO,SANTA FE AV.,,Recoleta,Comuna 2,,
-58.391972999053,-34.5958519011536,1264.0,B-CR-01264,,,Santa Fe Av. y Rodríguez Peña,,Coordenada,,4.0,,,,285,CRUCE SEMAFORIZADO,SANTA FE AV.,,Recoleta,Comuna 2,,
-58.389960398701895,-34.5957791010951,1265.0,B-CR-01265,,,Santa Fe Av. y Montevideo,,Coordenada,,4.0,,,,286,CRUCE SEMAFORIZADO,SANTA FE AV.,,Recoleta,Comuna 2,,
-58.3884271989551,-34.5957327006283,1266.0,B-CR-01266,,,Santa Fe Av. y Paraná,,Coordenada,,4.0,,,,287,CRUCE SEMAFORIZADO,SANTA FE AV.,,Recoleta,Comuna 2,,
-58.387164699212796,-34.595700900701,1267.0,B-CR-01267,,,Santa Fe Av. y Uruguay,,Coordenada,,4.0,,,,288,CRUCE SEMAFORIZADO,SANTA FE AV.,,Recoleta,Comuna 2,,
-58.3857652990092,-34.5956460011512,1268.0,B-CR-01268,,,Santa Fe Av. y Talcahuano,,Coordenada,,4.0,,,,289,CRUCE SEMAFORIZADO,SANTA FE AV.,,Retiro,Comuna 1,,
-58.3843102988412,-34.5955683010253,1269.0,B-CR-01269,,,Santa Fe Av. y Libertad,,Coordenada,,4.0,,,,290,CRUCE SEMAFORIZADO,SANTA FE AV.,,Retiro,Comuna 1,,
-58.38272629924621,-34.5954557006598,1270.0,B-CR-01270,,,Santa Fe Av. y Cerrito ,,Coordenada,,4.0,,,,291,CRUCE SEMAFORIZADO,SANTA FE AV.,,Retiro,Comuna 1,,
-58.398879298463605,-34.5970379010291,1271.0,B-CR-01271,,,Alvear Marcelo T.de y Uriburu José E. Pte.,,Coordenada,,4.0,,,,292,CRUCE SEMAFORIZADO,"ALVEAR, MARCELO T. DE",,Recoleta,Comuna 2,,
-58.38197479858089,-34.5953932009576,1272.0,B-CR-01272,,,Santa Fe Av. y 9 de Julio Av.,,Coordenada,,4.0,,,,293,CRUCE SEMAFORIZADO,SANTA FE AV.,,Retiro,Comuna 1,,
-58.381494298546,-34.5953472006053,1273.0,B-CR-01273,,,Santa Fe Av. y Pellegrini Carlos,,Coordenada,,4.0,,,,294,CRUCE SEMAFORIZADO,SANTA FE AV.,,Retiro,Comuna 1,,
-58.379953899054,-34.5952199006349,1274.0,B-CR-01274,,,Santa Fe Av. y Suipacha,,Coordenada,,4.0,,,,295,CRUCE SEMAFORIZADO,SANTA FE AV.,,Retiro,Comuna 1,,
-58.37850779871779,-34.5950920008835,1275.0,B-CR-01275,,,Santa Fe Av. y Esmeralda,,Coordenada,,4.0,,,,296,CRUCE SEMAFORIZADO,SANTA FE AV.,,Retiro,Comuna 1,,
-58.381716399277,-34.5941826012078,1276.0,B-CR-01276,,,Arenales y Pellegrini Carlos,,Coordenada,,4.0,,,,297,CRUCE SEMAFORIZADO,ARENALES,,Retiro,Comuna 1,,
-58.382757599074495,-34.5942985012378,1277.0,B-CR-01277,,,Arenales y Cerrito,,Coordenada,,4.0,,,,298,CRUCE SEMAFORIZADO,ARENALES,,Retiro,Comuna 1,,
-58.3844228988134,-34.5944217011708,1278.0,B-CR-01278,,,Arenales y Libertad,,Coordenada,,4.0,,,,299,CRUCE SEMAFORIZADO,ARENALES,,Retiro,Comuna 1,,
-58.388571199146604,-34.594678101147,1279.0,B-CR-01279,,,Arenales y Paraná,,Coordenada,,4.0,,,,300,CRUCE SEMAFORIZADO,ARENALES,,Recoleta,Comuna 2,,
-58.392072498964794,-34.594911700974194,1280.0,B-CR-01280,,,Arenales y Rodríguez Peña,,Coordenada,,4.0,,,,301,CRUCE SEMAFORIZADO,ARENALES,,Recoleta,Comuna 2,,
-58.3932023984311,-34.5948187005295,1281.0,B-CR-01281,,,Callao Av. y Arenales,,Coordenada,,4.0,,,,302,CRUCE SEMAFORIZADO,CALLAO AV.,,Recoleta,Comuna 2,,
-58.3981300991895,-34.5944193004654,1282.0,B-CR-01282,,,Arenales y Uriburu José E. Pte.,,Coordenada,,4.0,,,,303,CRUCE SEMAFORIZADO,ARENALES,,Recoleta,Comuna 2,,
-58.401856498929206,-34.5933133003836,1283.0,B-CR-01283,,,Pueyrredón Av. y Arenales,,Coordenada,,4.0,,,,304,CRUCE SEMAFORIZADO,PUEYRREDON AV.,,Recoleta,Comuna 2,,
-58.404172598776995,-34.592497700662,1284.0,B-CR-01284,,,Arenales y Anchorena T. de Dr.,,Coordenada,,4.0,,,,305,CRUCE SEMAFORIZADO,ARENALES,,Recoleta,Comuna 2,,
-58.4006981987871,-34.5937240011055,1285.0,B-CR-01285,,,Arenales y Larrea,,Coordenada,,4.0,,,,306,CRUCE SEMAFORIZADO,ARENALES,,Recoleta,Comuna 2,,
-58.397160598591604,-34.5944500006181,1286.0,B-CR-01286,,,Arenales y Junín,,Coordenada,,4.0,,,,307,CRUCE SEMAFORIZADO,ARENALES,,Recoleta,Comuna 2,,
-58.3931884984709,-34.5972282011579,1287.0,B-CR-01287,,,Callao Av. y Alvear Marcelo T.,,Coordenada,,4.0,,,,308,CRUCE SEMAFORIZADO,CALLAO AV.,,Recoleta,Comuna 2,,
-58.400310998828296,-34.5967333009417,1288.0,B-CR-01288,,,Alvear Marcelo T.de y Azcuénaga,,Coordenada,,4.0,,,,309,CRUCE SEMAFORIZADO,"ALVEAR, MARCELO T. DE",,Recoleta,Comuna 2,,
-58.39589819933661,-34.5946027012262,1289.0,B-CR-01289,,,Ayacucho y Arenales,,Coordenada,,4.0,,,,310,CRUCE SEMAFORIZADO,AYACUCHO,,Recoleta,Comuna 2,,
-58.38582369877629,-34.5945550011141,1290.0,B-CR-01290,,,Arenales y Talcahuano,,Coordenada,,4.0,,,,311,CRUCE SEMAFORIZADO,ARENALES,,Retiro,Comuna 1,,
-58.3873018988167,-34.594644100794,1291.0,B-CR-01291,,,Arenales y Uruguay,,Coordenada,,4.0,,,,312,CRUCE SEMAFORIZADO,ARENALES,,Retiro,Comuna 1,,
-58.3799814990578,-34.5940883003968,1292.0,B-CR-01292,,,Arenales y Suipacha,,Coordenada,,4.0,,,,313,CRUCE SEMAFORIZADO,ARENALES,,Retiro,Comuna 1,,
-58.394517298859604,-34.594720700871896,1293.0,B-CR-01293,,,Arenales y Riobamba,,Coordenada,,4.0,,,,314,CRUCE SEMAFORIZADO,ARENALES,,Recoleta,Comuna 2,,
-58.382279799102605,-34.5967460008577,1294.0,B-CR-01294,,,9 de Julio Av. y Alvear Marcelo T. ,,Coordenada,,4.0,,,,315,CRUCE SEMAFORIZADO,9 DE JULIO AV.,,Retiro,Comuna 1,,
-58.4077655990042,-34.601095301217796,1295.0,B-CR-01295,,,Tucumán y Jaures Jean,,Coordenada,,4.0,,,,316,CRUCE SEMAFORIZADO,TUCUMAN,,Balvanera,Comuna 3,,
-58.403037199224904,-34.5928997005435,1296.0,B-CR-01296,,,Arenales y Ecuador,,Coordenada,,4.0,,,,317,CRUCE SEMAFORIZADO,ARENALES,,Recoleta,Comuna 2,,
-58.4032635986676,-34.5903462011236,1297.0,B-CR-01297,,,Juncal y Laprida,,Coordenada,,4.0,,,,318,CRUCE SEMAFORIZADO,JUNCAL,,Recoleta,Comuna 2,,
-58.4051070985587,-34.591772100622,1299.0,B-CR-01299,,,Arenales y Laprida,,Coordenada,,4.0,,,,319,CRUCE SEMAFORIZADO,ARENALES,,Recoleta,Comuna 2,,
-58.408693799226505,-34.5994979009401,1300.0,B-CR-01300,,,San Luis y Anchorena T. de Dr.,,Coordenada,,4.0,,,,320,CRUCE SEMAFORIZADO,SAN LUIS,,Balvanera,Comuna 3,,
-58.404202898418504,-34.5998896007557,1301.0,B-CR-01301,,,Pueyrredón Av. y San Luis,,Coordenada,,4.0,,,,321,CRUCE SEMAFORIZADO,PUEYRREDON AV.,,Balvanera,Comuna 3,,
-58.4045065989117,-34.600873700529796,1302.0,B-CR-01302,,,Pueyrredón Av. y Viamonte,,Coordenada,,4.0,,,,322,CRUCE SEMAFORIZADO,PUEYRREDON AV.,,Balvanera,Comuna 3,,
-58.404796799051105,-34.6018141009666,1303.0,B-CR-01303,,,Pueyrredón Av. y Tucumán,,Coordenada,,4.0,,,,323,CRUCE SEMAFORIZADO,PUEYRREDON AV.,,Balvanera,Comuna 3,,
-58.406657899401,-34.6007000007357,1304.0,B-CR-01304,,,Viamonte y Ecuador,,Coordenada,,4.0,,,,324,CRUCE SEMAFORIZADO,VIAMONTE,,Balvanera,Comuna 3,,
-58.407194699374294,-34.5995883010233,1305.0,B-CR-01305,,,Jean Jaures y San Luis,,Coordenada,,4.0,,,,325,CRUCE SEMAFORIZADO,"JAURES, JEAN",,Balvanera,Comuna 3,,
-58.403289898671595,-34.599985101114996,1306.0,B-CR-01306,,,Paso y San Luis,,Coordenada,,4.0,,,,326,CRUCE SEMAFORIZADO,PASO,,Balvanera,Comuna 3,,
-58.4023071985573,-34.602072001189796,1307.0,B-CR-01307,,,Larrea y Tucumán,,Coordenada,,4.0,,,,327,CRUCE SEMAFORIZADO,LARREA,,Balvanera,Comuna 3,,
-58.39702449842421,-34.6021771009257,1308.0,B-CR-01308,,,Tucumán y Junín,,Coordenada,,4.0,,,,328,CRUCE SEMAFORIZADO,TUCUMAN,,Balvanera,Comuna 3,,
-58.40344549888621,-34.600962301079804,1309.0,B-CR-01309,,,Viamonte y Paso,,Coordenada,,4.0,,,,329,CRUCE SEMAFORIZADO,VIAMONTE,,Balvanera,Comuna 3,,
-58.4023781986286,-34.601045400450396,1310.0,B-CR-01310,,,Viamonte y Larrea,,Coordenada,,4.0,,,,330,CRUCE SEMAFORIZADO,VIAMONTE,,Balvanera,Comuna 3,,
-58.40098969886729,-34.6011520003473,1311.0,B-CR-01311,,,Viamonte y Azcuénaga,,Coordenada,,4.0,,,,331,CRUCE SEMAFORIZADO,VIAMONTE,,Balvanera,Comuna 3,,
-58.406937499228896,-34.6015983010922,1312.0,B-CR-01312,,,Tucumán y Ecuador,,Coordenada,,4.0,,,,332,CRUCE SEMAFORIZADO,TUCUMAN,,Balvanera,Comuna 3,,
-58.398618198526705,-34.601054700382,1313.0,B-CR-01313,,,Viamonte y Uriburu José E. Pte.,,Coordenada,,4.0,,,,333,CRUCE SEMAFORIZADO,VIAMONTE,,Balvanera,Comuna 3,,
-58.3971110990825,-34.6009986005869,1314.0,B-CR-01314,,,Viamonte y Junín,,Coordenada,,4.0,,,,334,CRUCE SEMAFORIZADO,VIAMONTE,,Balvanera,Comuna 3,,
-58.395676399197505,-34.6009213011056,1315.0,B-CR-01315,,,Viamonte y Ayacucho,,Coordenada,,4.0,,,,335,CRUCE SEMAFORIZADO,VIAMONTE,,Balvanera,Comuna 3,,
-58.3942112987065,-34.6008529009929,1316.0,B-CR-01316,,,Viamonte y Riobamba,,Coordenada,,4.0,,,,336,CRUCE SEMAFORIZADO,VIAMONTE,,Balvanera,Comuna 3,,
-58.392765499055606,-34.6007958011483,1317.0,B-CR-01317,,,Callao Av. y Viamonte,,Coordenada,,4.0,,,,337,CRUCE SEMAFORIZADO,CALLAO AV.,,Balvanera,Comuna 3,,
-58.3926740992268,-34.601973101239,1318.0,B-CR-01318,,,Callao Av. y Tucumán,,Coordenada,,4.0,,,,338,CRUCE SEMAFORIZADO,CALLAO AV.,,Balvanera,Comuna 3,,
-58.3914273987933,-34.600744900376,1319.0,B-CR-01319,,,Viamonte y Rodríguez Peña,,Coordenada,,4.0,,,,339,CRUCE SEMAFORIZADO,VIAMONTE,,San Nicolas,Comuna 1,,
-58.3896011988466,-34.6006959011349,1320.0,B-CR-01320,,,Viamonte y Montevideo,,Coordenada,,4.0,,,,340,CRUCE SEMAFORIZADO,VIAMONTE,,San Nicolas,Comuna 1,,
-58.388113799234,-34.600636200813696,1321.0,B-CR-01321,,,Viamonte y Paraná,,Coordenada,,4.0,,,,341,CRUCE SEMAFORIZADO,VIAMONTE,,San Nicolas,Comuna 1,,
-58.3867562985736,-34.6005708003553,1322.0,B-CR-01322,,,Viamonte y Uruguay,,Coordenada,,4.0,,,,342,CRUCE SEMAFORIZADO,VIAMONTE,,San Nicolas,Comuna 1,,
-58.38533169903629,-34.600487200736,1323.0,B-CR-01323,,,Viamonte y Talcahuano,,Coordenada,,4.0,,,,343,CRUCE SEMAFORIZADO,VIAMONTE,,San Nicolas,Comuna 1,,
-58.3839729986671,-34.6004319007693,1324.0,B-CR-01324,,,Viamonte y Libertad,,Coordenada,,4.0,,,,344,CRUCE SEMAFORIZADO,VIAMONTE,,San Nicolas,Comuna 1,,
-58.383923298991206,-34.6014495009053,1325.0,B-CR-01325,,,Libertad y Tucumán,,Coordenada,,4.0,,,,345,CRUCE SEMAFORIZADO,LIBERTAD,,San Nicolas,Comuna 1,,
-58.3852467991802,-34.6015703004371,1326.0,B-CR-01326,,,Talcahuano y Tucumán,,Coordenada,,4.0,,,,346,CRUCE SEMAFORIZADO,TALCAHUANO,,San Nicolas,Comuna 1,,
-58.3867060986164,-34.6016458006649,1327.0,B-CR-01327,,,Uruguay y Tucumán,,Coordenada,,4.0,,,,347,CRUCE SEMAFORIZADO,URUGUAY AV.,,San Nicolas,Comuna 1,,
-58.38519919890929,-34.602669901046504,1328.0,B-CR-01328,,,Lavalle y Talcahuano,,Coordenada,,4.0,,,,348,CRUCE SEMAFORIZADO,LAVALLE,,San Nicolas,Comuna 1,,
-58.3866359985519,-34.6027538009806,1329.0,B-CR-01329,,,Lavalle y Uruguay,,Coordenada,,4.0,,,,349,CRUCE SEMAFORIZADO,LAVALLE,,San Nicolas,Comuna 1,,
-58.383619199231205,-34.60261850114539,1330.0,B-CR-01330,,,Sáenz Peña Roque Pres. Av. y Lavalle,,Coordenada,,4.0,,,,350,CRUCE SEMAFORIZADO,"SAENZ PE\u00d1A, ROQUE, PRES. DIAGONAL NORTE AV.",,San Nicolas,Comuna 1,,
-58.3911990985454,-34.603089700863,1331.0,B-CR-01331,,,Lavalle y Rodríguez Peña,,Coordenada,,4.0,,,,351,CRUCE SEMAFORIZADO,LAVALLE,,San Nicolas,Comuna 1,,
-58.39239389874721,-34.6031352004442,1332.0,B-CR-01332,,,Callao Av. y Lavalle,,Coordenada,,4.0,,,,352,CRUCE SEMAFORIZADO,CALLAO AV.,,San Nicolas,Comuna 1,,
-58.389548198421494,-34.6017925004024,1333.0,B-CR-01333,,,Montevideo y Tucumán,,Coordenada,,4.0,,,,353,CRUCE SEMAFORIZADO,MONTEVIDEO,,San Nicolas,Comuna 1,,
-58.39411249913711,-34.602057100658605,1334.0,B-CR-01334,,,Tucumán y Riobamba,,Coordenada,,4.0,,,,354,CRUCE SEMAFORIZADO,TUCUMAN,,Balvanera,Comuna 3,,
-58.4036340991802,-34.6033946007383,1335.0,B-CR-01335,,,Lavalle y Paso,,Coordenada,,4.0,,,,355,CRUCE SEMAFORIZADO,LAVALLE,,Balvanera,Comuna 3,,
-58.3995592992815,-34.6033270009694,1336.0,B-CR-01336,,,Lavalle y Pasteur,,Coordenada,,4.0,,,,356,CRUCE SEMAFORIZADO,LAVALLE,,Balvanera,Comuna 3,,
-58.3969400987597,-34.6033125005972,1337.0,B-CR-01337,,,Lavalle y Junín,,Coordenada,,4.0,,,,357,CRUCE SEMAFORIZADO,LAVALLE,,Balvanera,Comuna 3,,
-58.402213998887206,-34.6034179005243,1338.0,B-CR-01338,,,Lavalle y Larrea,,Coordenada,,4.0,,,,358,CRUCE SEMAFORIZADO,LAVALLE,,Balvanera,Comuna 3,,
-58.405166299307496,-34.6033224007315,1339.0,B-CR-01339,,,Pueyrredón Av. y Lavalle,,Coordenada,,4.0,,,,359,CRUCE SEMAFORIZADO,PUEYRREDON AV.,,Balvanera,Comuna 3,,
-58.4009026987267,-34.6034292010733,1340.0,B-CR-01340,,,Lavalle y Azcuénaga,,Coordenada,,4.0,,,,360,CRUCE SEMAFORIZADO,LAVALLE,,Balvanera,Comuna 3,,
-58.4074166986857,-34.6030015008569,1341.0,B-CR-01341,,,Lavalle y Ecuador,,Coordenada,,4.0,,,,361,CRUCE SEMAFORIZADO,LAVALLE,,Balvanera,Comuna 3,,
-58.395430898989495,-34.60327830109,1342.0,B-CR-01342,,,Lavalle y Ayacucho,,Coordenada,,4.0,,,,362,CRUCE SEMAFORIZADO,LAVALLE,,Balvanera,Comuna 3,,
-58.3939964988464,-34.6032229005973,1343.0,B-CR-01343,,,Lavalle y Riobamba,,Coordenada,,4.0,,,,363,CRUCE SEMAFORIZADO,LAVALLE,,Balvanera,Comuna 3,,
-58.3913148986383,-34.6019001008772,1344.0,B-CR-01344,,,Tucumán y Rodríguez Peña,,Coordenada,,4.0,,,,364,CRUCE SEMAFORIZADO,TUCUMAN,,San Nicolas,Comuna 1,,
-58.395542298520496,-34.6021543007475,1345.0,B-CR-01345,,,Ayacucho y Tucumán,,Coordenada,,4.0,,,,365,CRUCE SEMAFORIZADO,AYACUCHO,,Balvanera,Comuna 3,,
-58.411752598685204,-34.6040914004087,1346.0,B-CR-01346,,,Corrientes Av. y Agüero,,Coordenada,,4.0,,,,366,CRUCE SEMAFORIZADO,CORRIENTES AV.,,Balvanera,Comuna 3,,
-58.4103597989664,-34.6040148003828,1347.0,B-CR-01347,,,Corrientes Av. y Anchorena T. de Dr.,,Coordenada,,4.0,,,,367,CRUCE SEMAFORIZADO,CORRIENTES AV.,,Balvanera,Comuna 3,,
-58.40891689842879,-34.6041035004209,1348.0,B-CR-01348,,,Corrientes Av. y Jean Jaures,,Coordenada,,4.0,,,,368,CRUCE SEMAFORIZADO,CORRIENTES AV.,,Balvanera,Comuna 3,,
-58.4078149989469,-34.6042536010768,1349.0,B-CR-01349,,,Corrientes Av. y Ecuador,,Coordenada,,4.0,,,,369,CRUCE SEMAFORIZADO,CORRIENTES AV.,,Balvanera,Comuna 3,,
-58.4066483987361,-34.6044091004716,1350.0,B-CR-01350,,,Corrientes Av. y Boulogne Sur Mer,,Coordenada,,4.0,,,,370,CRUCE SEMAFORIZADO,CORRIENTES AV.,,Balvanera,Comuna 3,,
-58.405480999313404,-34.604542501195,1351.0,B-CR-01351,,,Corrientes Av. y Pueyrredón Av.,,Coordenada,,4.0,,,,371,CRUCE SEMAFORIZADO,CORRIENTES AV.,,Balvanera,Comuna 3,,
-58.4036300992264,-34.6047341005129,1353.0,B-CR-01353,,,Corrientes Av. y Paso,,Coordenada,,4.0,,,,372,CRUCE SEMAFORIZADO,CORRIENTES AV.,,Balvanera,Comuna 3,,
-58.402134498832595,-34.6046981010738,1354.0,B-CR-01354,,,Corrientes Av. y Larrea,,Coordenada,,4.0,,,,373,CRUCE SEMAFORIZADO,CORRIENTES AV.,,Balvanera,Comuna 3,,
-58.4008391990051,-34.6046671005827,1355.0,B-CR-01355,,,Corrientes Av. y Azcuénaga,,Coordenada,,4.0,,,,374,CRUCE SEMAFORIZADO,CORRIENTES AV.,,Balvanera,Comuna 3,,
-58.39948369913779,-34.6046324007196,1356.0,B-CR-01356,,,Corrientes Av. y Pasteur,,Coordenada,,4.0,,,,375,CRUCE SEMAFORIZADO,CORRIENTES AV.,,Balvanera,Comuna 3,,
-58.398231899303106,-34.6045597006769,1357.0,B-CR-01357,,,Corrientes Av. y Uriburu José E. Pte.  ,,Coordenada,,4.0,,,,376,CRUCE SEMAFORIZADO,CORRIENTES AV.,,Balvanera,Comuna 3,,
-58.3967868992447,-34.6044972005823,1358.0,B-CR-01358,,,Corrientes Av. y Junín,,Coordenada,,4.0,,,,377,CRUCE SEMAFORIZADO,CORRIENTES AV.,,Balvanera,Comuna 3,,
-58.395298598420496,-34.604481601161396,1359.0,B-CR-01359,,,Corrientes Av. y Ayacucho,,Coordenada,,4.0,,,,378,CRUCE SEMAFORIZADO,CORRIENTES AV.,,Balvanera,Comuna 3,,
-58.393860199101404,-34.6044531003956,1360.0,B-CR-01360,,,Corrientes Av. y Riobamba,,Coordenada,,4.0,,,,379,CRUCE SEMAFORIZADO,CORRIENTES AV.,,Balvanera,Comuna 3,,
-58.39229569862061,-34.6044228008422,1361.0,B-CR-01361,,,Corrientes Av. y Callao Av. ,,Coordenada,,4.0,,,,380,CRUCE SEMAFORIZADO,CORRIENTES AV.,,San Nicolas,Comuna 1,,
-58.390819798982704,-34.6043237011393,1362.0,B-CR-01362,,,Corrientes Av. y Rodríguez Peña,,Coordenada,,4.0,,,,381,CRUCE SEMAFORIZADO,CORRIENTES AV.,,San Nicolas,Comuna 1,,
-58.389403699378605,-34.6042126005941,1363.0,B-CR-01363,,,Corrientes Av. y Montevideo,,Coordenada,,4.0,,,,382,CRUCE SEMAFORIZADO,CORRIENTES AV.,,San Nicolas,Comuna 1,,
-58.3879001994396,-34.604091800861,1364.0,B-CR-01364,,,Corrientes Av. y Paraná,,Coordenada,,4.0,,,,383,CRUCE SEMAFORIZADO,CORRIENTES AV.,,San Nicolas,Comuna 1,,
-58.38653109906421,-34.603988800647,1365.0,B-CR-01365,,,Corrientes Av. y Uruguay,,Coordenada,,4.0,,,,384,CRUCE SEMAFORIZADO,CORRIENTES AV.,,San Nicolas,Comuna 1,,
-58.3851281986256,-34.6039087007829,1366.0,B-CR-01366,,,Corrientes Av. y Talcahuano,,Coordenada,,4.0,,,,385,CRUCE SEMAFORIZADO,CORRIENTES AV.,,San Nicolas,Comuna 1,,
-58.383709199155206,-34.6038257005708,1367.0,B-CR-01367,,,Corrientes Av. y Libertad ,,Coordenada,,4.0,,,,386,CRUCE SEMAFORIZADO,CORRIENTES AV.,,San Nicolas,Comuna 1,,
-58.383623298588496,-34.6050898011217,1368.0,B-CR-01368,,,Sarmiento y Libertad,,Coordenada,,4.0,,,,387,CRUCE SEMAFORIZADO,SARMIENTO,,San Nicolas,Comuna 1,,
-58.39219269936999,-34.605630600671,1369.0,B-CR-01369,,,Callao Av. y Sarmiento,,Coordenada,,4.0,,,,388,CRUCE SEMAFORIZADO,CALLAO AV.,,San Nicolas,Comuna 1,,
-58.390794398801496,-34.6055245007152,1370.0,B-CR-01370,,,Sarmiento y Rodríguez Peña,,Coordenada,,4.0,,,,389,CRUCE SEMAFORIZADO,SARMIENTO,,San Nicolas,Comuna 1,,
-58.389346599103206,-34.6054382011326,1371.0,B-CR-01371,,,Sarmiento y Montevideo,,Coordenada,,4.0,,,,390,CRUCE SEMAFORIZADO,SARMIENTO,,San Nicolas,Comuna 1,,
-58.3937015983978,-34.6057579004325,1372.0,B-CR-01372,,,Sarmiento y Riobamba,,Coordenada,,4.0,,,,391,CRUCE SEMAFORIZADO,SARMIENTO,,Balvanera,Comuna 3,,
-58.3894705987496,-34.6030069004945,1373.0,B-CR-01373,,,Lavalle y Montevideo,,Coordenada,,4.0,,,,392,CRUCE SEMAFORIZADO,LAVALLE,,San Nicolas,Comuna 1,,
-58.3880432991241,-34.6017051009208,1374.0,B-CR-01374,,,Paraná y Tucumán,,Coordenada,,4.0,,,,393,CRUCE SEMAFORIZADO,PARANA,,San Nicolas,Comuna 1,,
-58.4024387990174,-34.6000777009452,1375.0,B-CR-01375,,,Larrea y San Luis,,Coordenada,,4.0,,,,394,CRUCE SEMAFORIZADO,LARREA,,Balvanera,Comuna 3,,
-58.4063132991815,-34.5996414011545,1376.0,B-CR-01376,,,Ecuador y San Luis ,,Coordenada,,4.0,,,,395,CRUCE SEMAFORIZADO,ECUADOR,,Balvanera,Comuna 3,,
-58.3879526994476,-34.6028909010496,1377.0,B-CR-01377,,,Lavalle y Paraná,,Coordenada,,4.0,,,,396,CRUCE SEMAFORIZADO,LAVALLE,,San Nicolas,Comuna 1,,
-58.3998171992425,-34.6011117003984,1378.0,B-CR-01378,,,Viamonte y Pasteur,,Coordenada,,4.0,,,,397,CRUCE SEMAFORIZADO,VIAMONTE,,Balvanera,Comuna 3,,
-58.387899799420396,-34.6053513008499,1379.0,B-CR-01379,,,Sarmiento y Paraná,,Coordenada,,4.0,,,,398,CRUCE SEMAFORIZADO,SARMIENTO,,San Nicolas,Comuna 1,,
-58.396598998686706,-34.605943500533,1380.0,B-CR-01380,,,Sarmiento y Junín,,Coordenada,,4.0,,,,399,CRUCE SEMAFORIZADO,SARMIENTO,,Balvanera,Comuna 3,,
-58.3979807989097,-34.6060074008358,1381.0,B-CR-01381,,,Sarmiento y Uriburu José E. Pte. ,,Coordenada,,4.0,,,,400,CRUCE SEMAFORIZADO,SARMIENTO,,Balvanera,Comuna 3,,
-58.399335998901606,-34.606056400591605,1382.0,B-CR-01382,,,Sarmiento y Pasteur,,Coordenada,,4.0,,,,401,CRUCE SEMAFORIZADO,SARMIENTO,,Balvanera,Comuna 3,,
-58.402053999338506,-34.6062519010515,1383.0,B-CR-01383,,,Sarmiento y Larrea,,Coordenada,,4.0,,,,402,CRUCE SEMAFORIZADO,SARMIENTO,,Balvanera,Comuna 3,,
-58.40353849858229,-34.6063630006352,1384.0,B-CR-01384,,,Sarmiento y Paso,,Coordenada,,4.0,,,,403,CRUCE SEMAFORIZADO,SARMIENTO,,Balvanera,Comuna 3,,
-58.405930999142896,-34.60653030095,1385.0,B-CR-01385,,,Pueyrredón Av. y Sarmiento,,Coordenada,,4.0,,,,404,CRUCE SEMAFORIZADO,PUEYRREDON AV.,,Balvanera,Comuna 3,,
-58.405735298413404,-34.6055462010969,1386.0,B-CR-01386,,,Pueyrredón Av. y Gómez Valentín,,Coordenada,,4.0,,,,405,CRUCE SEMAFORIZADO,PUEYRREDON AV.,,Balvanera,Comuna 3,,
-58.4093907987702,-34.6052376009686,1387.0,B-CR-01387,,,Gómez Valentín y Jean Jaures,,Coordenada,,4.0,,,,406,CRUCE SEMAFORIZADO,"GOMEZ, VALENTIN",,Balvanera,Comuna 3,,
-58.395141498734205,-34.6058467004565,1388.0,B-CR-01388,,,Ayacucho y Sarmiento,,Coordenada,,4.0,,,,407,CRUCE SEMAFORIZADO,AYACUCHO,,Balvanera,Comuna 3,,
-58.386311598593,-34.607601500932105,1389.0,B-CR-01389,,,Mitre Bartolomé y Uruguay,,Coordenada,,4.0,,,,408,CRUCE SEMAFORIZADO,"MITRE, BARTOLOME",,San Nicolas,Comuna 1,,
-58.411346898859996,-34.6065227009391,1390.0,B-CR-01390,,,Sarmiento y Anchorena T. de Dr.,,Coordenada,,4.0,,,,409,CRUCE SEMAFORIZADO,SARMIENTO,,Balvanera,Comuna 3,,
-58.4046647989937,-34.606445200479,1391.0,B-CR-01391,,,Sarmiento y Castelli,,Coordenada,,4.0,,,,410,CRUCE SEMAFORIZADO,SARMIENTO,,Balvanera,Comuna 3,,
-58.4007219985686,-34.606146401227605,1392.0,B-CR-01392,,,Sarmiento y Azcuénaga,,Coordenada,,4.0,,,,411,CRUCE SEMAFORIZADO,SARMIENTO,,Balvanera,Comuna 3,,
-58.40999509859421,-34.6067069011553,1393.0,B-CR-01393,,,Sarmiento y Jean Jaures,,Coordenada,,4.0,,,,412,CRUCE SEMAFORIZADO,SARMIENTO,,Balvanera,Comuna 3,,
-58.410785498905604,-34.6050913006458,1394.0,B-CR-01394,,,Anchorena T. de Dr. y Gómez Valentín,,Coordenada,,4.0,,,,413,CRUCE SEMAFORIZADO,"ANCHORENA, TOMAS MANUEL DE, DR.",,Balvanera,Comuna 3,,
-58.38504549875711,-34.6051761009412,1395.0,B-CR-01395,,,Sarmiento y Talcahuano,,Coordenada,,4.0,,,,414,CRUCE SEMAFORIZADO,SARMIENTO,,San Nicolas,Comuna 1,,
-58.38647509928761,-34.6052681003439,1396.0,B-CR-01396,,,Sarmiento y Uruguay,,Coordenada,,4.0,,,,415,CRUCE SEMAFORIZADO,SARMIENTO,,San Nicolas,Comuna 1,,
-58.4098006988302,-34.6025308004077,1397.0,B-CR-01397,,,Lavalle y Anchorena T. de Dr.,,Coordenada,,4.0,,,,416,CRUCE SEMAFORIZADO,LAVALLE,,Balvanera,Comuna 3,,
-58.4009063987936,-34.6022018007587,1398.0,B-CR-01398,,,Azcuénaga y Tucumán,,Coordenada,,4.0,,,,417,CRUCE SEMAFORIZADO,AZCUENAGA,,Balvanera,Comuna 3,,
-58.4091760987716,-34.6008270006713,1399.0,B-CR-01399,,,Tucumán y Anchorena T. de Dr.,,Coordenada,,4.0,,,,418,CRUCE SEMAFORIZADO,TUCUMAN,,Balvanera,Comuna 3,,
-58.4035969988536,-34.6019432009301,1400.0,B-CR-01400,,,Tucumán y Paso,,Coordenada,,4.0,,,,419,CRUCE SEMAFORIZADO,TUCUMAN,,Balvanera,Comuna 3,,
-58.39837339870629,-34.6033303010026,1401.0,B-CR-01401,,,Lavalle y Uriburu,,Coordenada,,4.0,,,,420,CRUCE SEMAFORIZADO,LAVALLE,,Balvanera,Comuna 3,,
-58.398506199388294,-34.6021920006239,1402.0,B-CR-01402,,,Tucumán y Uriburu,,Coordenada,,4.0,,,,421,CRUCE SEMAFORIZADO,TUCUMAN,,Balvanera,Comuna 3,,
-58.406932498951505,-34.612485800478396,1403.0,B-CR-01403,,,Catamarca y Alsina Adolfo,,Coordenada,,4.0,,,,422,CRUCE SEMAFORIZADO,CATAMARCA,,Balvanera,Comuna 3,,
-58.4071329991153,-34.6077244011109,1404.0,B-CR-01404,,,Perón Juan D. Tte. Gral. 2867,,Coordenada,,4.0,,,,423,CRUCE SEMAFORIZADO,"PERON, JUAN DOMINGO, TTE. GENERAL",2867,Balvanera,Comuna 3,1198,C1198AAA
-58.4004045984493,-34.610902600462,1407.0,B-CR-01407,,,Yrigoyen Hipolito y Matheu,,Coordenada,,4.0,,,,425,CRUCE SEMAFORIZADO,"YRIGOYEN, HIPOLITO",,Balvanera,Comuna 3,,
-58.3974575989534,-34.6106888004767,1408.0,B-CR-01408,,,Yrigoyen Hipólito y Pasco,,Coordenada,,4.0,,,,426,CRUCE SEMAFORIZADO,"YRIGOYEN, HIPOLITO",,Balvanera,Comuna 3,,
-58.3903752988159,-34.611394600580304,1409.0,B-CR-01409,,,Alsina Adolfo y Solís,,Coordenada,,4.0,,,,427,CRUCE SEMAFORIZADO,"ALSINA, ADOLFO",,Monserrat,Comuna 1,,
-58.3933154986098,-34.6116000004548,1410.0,B-CR-01410,,,Alsina Adolfo y Combate de los Pozos,,Coordenada,,4.0,,,,428,CRUCE SEMAFORIZADO,"ALSINA, ADOLFO",,Balvanera,Comuna 3,,
-58.3894239993569,-34.6102797011299,1412.0,B-CR-01412,,,Yrigoyen Hipólito y Fte.Caja de Ahorro,,Coordenada,,4.0,,,,430,CRUCE SEMAFORIZADO,,,Monserrat,Comuna 1,,
-58.386233898777704,-34.609942701193,1413.0,B-CR-01413,,,Yrigoyen Hipólito y San José,,Coordenada,,4.0,,,,431,CRUCE SEMAFORIZADO,"YRIGOYEN, HIPOLITO",,Monserrat,Comuna 1,,
-58.383416998988,-34.6097552009033,1414.0,B-CR-01414,,,Yrigoyen Hipólito y Salta,,Coordenada,,4.0,,,,432,CRUCE SEMAFORIZADO,"YRIGOYEN, HIPOLITO",,Monserrat,Comuna 1,,
-58.3834476990355,-34.6091816003906,1415.0,B-CR-01415,,,De Mayo Av. y Salta,,Coordenada,,4.0,,,,433,CRUCE SEMAFORIZADO,DE MAYO AV.,,Monserrat,Comuna 1,,
-58.3848539992341,-34.6092577004089,1416.0,B-CR-01416,,,De Mayo Av. y Santiago del Estero,,Coordenada,,4.0,,,,434,CRUCE SEMAFORIZADO,DE MAYO AV.,,Monserrat,Comuna 1,,
-58.38625689887779,-34.609314000858895,1417.0,B-CR-01417,,,De Mayo Av. y San José,,Coordenada,,4.0,,,,435,CRUCE SEMAFORIZADO,DE MAYO AV.,,Monserrat,Comuna 1,,
-58.3872590993464,-34.6094421010952,1418.0,B-CR-01418,,,De Mayo Av. y Sáenz Peña Luis Pte. ,,Coordenada,,4.0,,,,436,CRUCE SEMAFORIZADO,DE MAYO AV.,,Monserrat,Comuna 1,,
-58.38766319912911,-34.608893700615,1419.0,B-CR-01419,,,Rivadavia Av. y Paraná,,Coordenada,,4.0,,,,437,CRUCE SEMAFORIZADO,RIVADAVIA AV.,,San Nicolas,Comuna 1,,
-58.3875748992887,-34.6099891012369,1420.0,B-CR-01420,,,Yrigoyen Hipólito y Sáenz Peña Luis Pte.,,Coordenada,,4.0,,,,438,CRUCE SEMAFORIZADO,"YRIGOYEN, HIPOLITO",,Monserrat,Comuna 1,,
-58.3891791989939,-34.6090913009529,1421.0,B-CR-01421,,,Rivadavia Av. y Montevideo,,Coordenada,,4.0,,,,439,CRUCE SEMAFORIZADO,RIVADAVIA AV.,,Monserrat,Comuna 1,,
-58.3890649989884,-34.610079800426995,1422.0,B-CR-01422,,,Yrigoyen Hipólito y Virrey Cevallos,,Coordenada,,4.0,,,,440,CRUCE SEMAFORIZADO,"YRIGOYEN, HIPOLITO AV.",,Monserrat,Comuna 1,,
-58.390562898765204,-34.6091858010997,1423.0,B-CR-01423,,,Rivadavia Av. y Rodríguez Peña,,Coordenada,,4.0,,,,441,CRUCE SEMAFORIZADO,RIVADAVIA AV.,,Monserrat,Comuna 1,,
-58.3912904991463,-34.6101489008667,1424.0,B-CR-01424,,,Yrigoyen Hipólito y Solís,,Coordenada,,4.0,,,,442,CRUCE SEMAFORIZADO,"YRIGOYEN, HIPOLITO AV.",,Monserrat,Comuna 1,,
-58.391946699281206,-34.6091614008156,1425.0,B-CR-01425,,,Rivadavia Av. y Entre Ríos Av.,,Coordenada,,4.0,,,,443,CRUCE SEMAFORIZADO,RIVADAVIA AV.,,San Nicolas,Comuna 1,,
-58.3918544986473,-34.6103211011645,1426.0,B-CR-01426,,,Entre Rios Av. y Yrigoyen Hipólito,,Coordenada,,4.0,,,,444,CRUCE SEMAFORIZADO,ENTRE RIOS AV.,,Monserrat,Comuna 1,,
-58.39333219883,-34.6104281003945,1427.0,B-CR-01427,,,Yrigoyen Hipólito y Combate de los Pozos,,Coordenada,,4.0,,,,445,CRUCE SEMAFORIZADO,"YRIGOYEN, HIPOLITO",,Balvanera,Comuna 3,,
-58.3933959985192,-34.6092692004143,1428.0,B-CR-01428,,,Rivadavia Av. y Combate de los Pozos,,Coordenada,,4.0,,,,446,CRUCE SEMAFORIZADO,RIVADAVIA AV.,,Balvanera,Comuna 3,,
-58.3948708993992,-34.6093752004606,1429.0,B-CR-01429,,,Rivadavia Av. y Sarandí,,Coordenada,,4.0,,,,447,CRUCE SEMAFORIZADO,RIVADAVIA AV.,,Balvanera,Comuna 3,,
-58.3962864987823,-34.609476600837105,1430.0,B-CR-01430,,,Rivadavia Av. y Rincón,,Coordenada,,4.0,,,,448,CRUCE SEMAFORIZADO,RIVADAVIA AV.,,Balvanera,Comuna 3,,
-58.3975921989552,-34.6095673009023,1431.0,B-CR-01431,,,Rivadavia Av. y Pasco,,Coordenada,,4.0,,,,449,CRUCE SEMAFORIZADO,RIVADAVIA AV.,,Balvanera,Comuna 3,,
-58.39910889924629,-34.6096898008459,1432.0,B-CR-01432,,,Rivadavia Av. y Pichincha,,Coordenada,,4.0,,,,450,CRUCE SEMAFORIZADO,RIVADAVIA AV.,,Balvanera,Comuna 3,,
-58.4004709984965,-34.6097951010334,1433.0,B-CR-01433,,,Rivadavia Av. y Matheu,,Coordenada,,4.0,,,,451,CRUCE SEMAFORIZADO,RIVADAVIA AV.,,Balvanera,Comuna 3,,
-58.401783199471595,-34.609872800442,1434.0,B-CR-01434,,,Rivadavia Av. y Alberti,,Coordenada,,4.0,,,,452,CRUCE SEMAFORIZADO,RIVADAVIA AV.,,Balvanera,Comuna 3,,
-58.403325199034995,-34.609959301203396,1435.0,B-CR-01435,,,Rivadavia Av. y Saavedra,,Coordenada,,4.0,,,,453,CRUCE SEMAFORIZADO,RIVADAVIA AV.,,Balvanera,Comuna 3,,
-58.40457149854979,-34.6100340007376,1436.0,B-CR-01436,,,Rivadavia Av. y Misiones,,Coordenada,,4.0,,,,454,CRUCE SEMAFORIZADO,RIVADAVIA AV.,,Balvanera,Comuna 3,,
-58.4059388991113,-34.6101044007967,1437.0,B-CR-01437,,,Rivadavia Av. y Jujuy Av.,,Coordenada,,4.0,,,,455,CRUCE SEMAFORIZADO,RIVADAVIA AV.,,Balvanera,Comuna 3,,
-58.407662399432,-34.610236000411504,1438.0,B-CR-01438,,,Rivadavia Av. y Catamarca,,Coordenada,,4.0,,,,456,CRUCE SEMAFORIZADO,RIVADAVIA AV.,,Balvanera,Comuna 3,,
-58.4088875984046,-34.610318400535,1439.0,B-CR-01439,,,Rivadavia Av. y La Rioja,,Coordenada,,4.0,,,,457,CRUCE SEMAFORIZADO,RIVADAVIA AV.,,Balvanera,Comuna 3,,
-58.41035579912129,-34.6104114009543,1440.0,B-CR-01440,,,Rivadavia Av. y Urquiza Gral.,,Coordenada,,4.0,,,,458,CRUCE SEMAFORIZADO,RIVADAVIA AV.,,Balvanera,Comuna 3,,
-58.4117333988529,-34.6105133008096,1441.0,B-CR-01441,,,Rivadavia Av. y 24 de Noviembre,,Coordenada,,4.0,,,,459,CRUCE SEMAFORIZADO,RIVADAVIA AV.,,Balvanera,Comuna 3,,
-58.4088027986368,-34.6091498011322,1442.0,B-CR-01442,,,Mitre Bartolomé y Ecuador,,Coordenada,,4.0,,,,460,CRUCE SEMAFORIZADO,"MITRE, BARTOLOME",,Balvanera,Comuna 3,,
-58.4064853989315,-34.6089033009889,1443.0,B-CR-01443,,,Mitre Bartolomé 2832,,Coordenada,,4.0,,,,461,CRUCE SEMAFORIZADO,"MITRE, BARTOLOME",2832,Balvanera,Comuna 3,1201,C1201AAB
-58.4059951990961,-34.6093542005504,1444.0,B-CR-01444,,,Pueyrredón Av. y Mitre Bartolomé,,Coordenada,,4.0,,,,462,CRUCE SEMAFORIZADO,PUEYRREDON AV.,,Balvanera,Comuna 3,,
-58.4046757993806,-34.608753900743295,1445.0,B-CR-01445,,,Mitre Bartolomé y Castelli,,Coordenada,,4.0,,,,463,CRUCE SEMAFORIZADO,"MITRE, BARTOLOME",,Balvanera,Comuna 3,,
-58.403397599357994,-34.6086881011235,1446.0,B-CR-01446,,,Mitre Bartolomé y Paso,,Coordenada,,4.0,,,,464,CRUCE SEMAFORIZADO,"MITRE, BARTOLOME",,Balvanera,Comuna 3,,
-58.401905999099,-34.6086089010286,1447.0,B-CR-01447,,,Mitre Bartolomé y Larrea,,Coordenada,,4.0,,,,465,CRUCE SEMAFORIZADO,"MITRE, BARTOLOME",,Balvanera,Comuna 3,,
-58.400555898795396,-34.6085410012378,1448.0,B-CR-01448,,,Mitre Bartolomé y Azcuénaga,,Coordenada,,4.0,,,,466,CRUCE SEMAFORIZADO,"MITRE, BARTOLOME",,Balvanera,Comuna 3,,
-58.3977323992072,-34.6083563007211,1450.0,B-CR-01450,,,Mitre Bartolomé y Uriburu José E. Pte.,,Coordenada,,4.0,,,,468,CRUCE SEMAFORIZADO,"MITRE, BARTOLOME",,Balvanera,Comuna 3,,
-58.3963894992865,-34.6082591005726,1451.0,B-CR-01451,,,Mitre Bartolomé y Junín,,Coordenada,,4.0,,,,469,CRUCE SEMAFORIZADO,"MITRE, BARTOLOME",,Balvanera,Comuna 3,,
-58.394951398527205,-34.608148800677,1452.0,B-CR-01452,,,Mitre Bartolomé y Ayacucho,,Coordenada,,4.0,,,,470,CRUCE SEMAFORIZADO,"MITRE, BARTOLOME",,Balvanera,Comuna 3,,
-58.3934697991551,-34.6080464008573,1453.0,B-CR-01453,,,Mitre Bartolomé y Riobamba,,Coordenada,,4.0,,,,471,CRUCE SEMAFORIZADO,"MITRE, BARTOLOME",,Balvanera,Comuna 3,,
-58.3920403990937,-34.607974100704304,1454.0,B-CR-01454,,,Callao Av. y Mitre Bartolomé,,Coordenada,,4.0,,,,472,CRUCE SEMAFORIZADO,CALLAO AV.,,San Nicolas,Comuna 1,,
-58.390679598670594,-34.607907700816305,1455.0,B-CR-01455,,,Mitre Bartolomé y Rodríguez Peña,,Coordenada,,4.0,,,,473,CRUCE SEMAFORIZADO,"MITRE, BARTOLOME",,San Nicolas,Comuna 1,,
-58.4131019993956,-34.6106244004923,1456.0,B-CR-01456,,,Rivadavia Av. y Esparza,,Coordenada,,4.0,,,,474,CRUCE SEMAFORIZADO,RIVADAVIA AV.,,Balvanera,Comuna 3,,
-58.387739198649705,-34.6076987009068,1457.0,B-CR-01457,,,Mitre Bartolomé y Paraná,,Coordenada,,4.0,,,,475,CRUCE SEMAFORIZADO,"MITRE, BARTOLOME",,San Nicolas,Comuna 1,,
-58.4114603990007,-34.6130184004893,1458.0,B-CR-01458,,,Alsina Adolfo y 24 de Noviembre,,Coordenada,,4.0,,,,476,CRUCE SEMAFORIZADO,"ALSINA, ADOLFO",,Balvanera,Comuna 3,,
-58.389272398794795,-34.6078070003514,1459.0,B-CR-01459,,,Mitre Bartolomé y Montevideo,,Coordenada,,4.0,,,,477,CRUCE SEMAFORIZADO,"MITRE, BARTOLOME",,San Nicolas,Comuna 1,,
-58.399214898863704,-34.6084632006265,1460.0,B-CR-01460,,,Mitre Bartolomé y Pasteur,,Coordenada,,4.0,,,,478,CRUCE SEMAFORIZADO,"MITRE, BARTOLOME",,Balvanera,Comuna 3,,
-58.384816298981,-34.609848100573394,1461.0,B-CR-01461,,,Yrigoyen Hipólito y Santiago del Estero,,Coordenada,,4.0,,,,479,CRUCE SEMAFORIZADO,"YRIGOYEN, HIPOLITO",,Monserrat,Comuna 1,,
-58.383587498729106,-34.6062247004458,1462.0,B-CR-01462,,,Perón Juan D. Tte. Gral. y Libertad,,Coordenada,,4.0,,,,480,CRUCE SEMAFORIZADO,"PERON, JUAN DOMINGO, TTE. GENERAL",,San Nicolas,Comuna 1,,
-58.3850037988585,-34.606334900455195,1463.0,B-CR-01463,,,Perón Juan D. Tte. Gral. y Talcahuano,,Coordenada,,4.0,,,,481,CRUCE SEMAFORIZADO,"PERON, JUAN DOMINGO, TTE. GENERAL",,San Nicolas,Comuna 1,,
-58.3863816984318,-34.6064244007687,1464.0,B-CR-01464,,,Perón Juan D. Tte. Gral. y Urugüay ,,Coordenada,,4.0,,,,482,CRUCE SEMAFORIZADO,"PERON, JUAN DOMINGO, TTE. GENERAL",,San Nicolas,Comuna 1,,
-58.38781769890579,-34.6065149010615,1465.0,B-CR-01465,,,Perón Juan D. Tte. Gral. y Paraná,,Coordenada,,4.0,,,,483,CRUCE SEMAFORIZADO,"PERON, JUAN DOMINGO, TTE. GENERAL",,San Nicolas,Comuna 1,,
-58.389317799332,-34.6066234004764,1466.0,B-CR-01466,,,Perón Juan D. Tte. Gral. y Montevideo,,Coordenada,,4.0,,,,484,CRUCE SEMAFORIZADO,"PERON, JUAN DOMINGO, TTE. GENERAL",,San Nicolas,Comuna 1,,
-58.390753199401,-34.6066909007298,1467.0,B-CR-01467,,,Perón Juan D. Tte. Gral. y Rodríguez Peña,,Coordenada,,4.0,,,,485,CRUCE SEMAFORIZADO,"PERON, JUAN DOMINGO, TTE. GENERAL",,San Nicolas,Comuna 1,,
-58.39212029883571,-34.6067782006645,1468.0,B-CR-01468,,,Callao Av. y Perón Juan D. Tte. Gral.,,Coordenada,,4.0,,,,486,CRUCE SEMAFORIZADO,CALLAO AV.,,San Nicolas,Comuna 1,,
-58.393571699429394,-34.6069068010778,1469.0,B-CR-01469,,,Perón Juan D. Tte. Gral. y Riobamba,,Coordenada,,4.0,,,,487,CRUCE SEMAFORIZADO,"PERON, JUAN DOMINGO, TTE. GENERAL",,Balvanera,Comuna 3,,
-58.39503159907579,-34.607042900653894,1470.0,B-CR-01470,,,Perón Juan D. Tte. Gral. y Ayacucho,,Coordenada,,4.0,,,,488,CRUCE SEMAFORIZADO,"PERON, JUAN DOMINGO, TTE. GENERAL",,Balvanera,Comuna 3,,
-58.3964747990438,-34.6071429007042,1471.0,B-CR-01471,,,Perón Juan D. Tte. Gral. y Junín,,Coordenada,,4.0,,,,489,CRUCE SEMAFORIZADO,"PERON, JUAN DOMINGO, TTE. GENERAL",,Balvanera,Comuna 3,,
-58.3978595991734,-34.60722160117339,1472.0,B-CR-01472,,,Perón Juan D. Tte. Gral. y Uriburu José E. Pte.,,Coordenada,,4.0,,,,490,CRUCE SEMAFORIZADO,"PERON, JUAN DOMINGO, TTE. GENERAL",,Balvanera,Comuna 3,,
-58.3992578989616,-34.6073078010542,1473.0,B-CR-01473,,,Perón Juan D. Tte. Gral. y Pasteur,,Coordenada,,4.0,,,,491,CRUCE SEMAFORIZADO,"PERON, JUAN DOMINGO, TTE. GENERAL",,Balvanera,Comuna 3,,
-58.4006362986469,-34.6073800006394,1474.0,B-CR-01474,,,Perón Juan D. Tte. Gral. y Azcuénaga,,Coordenada,,4.0,,,,492,CRUCE SEMAFORIZADO,"PERON, JUAN DOMINGO, TTE. GENERAL",,Balvanera,Comuna 3,,
-58.401968599087894,-34.6074587007735,1475.0,B-CR-01475,,,Perón Juan D. Tte. Gral. y Larrea,,Coordenada,,4.0,,,,493,CRUCE SEMAFORIZADO,"PERON, JUAN DOMINGO, TTE. GENERAL",,Balvanera,Comuna 3,,
-58.4034677989727,-34.6075159005052,1476.0,B-CR-01476,,,Perón Juan D. Tte. Gral. y Paso,,Coordenada,,4.0,,,,494,CRUCE SEMAFORIZADO,"PERON, JUAN DOMINGO, TTE. GENERAL",,Balvanera,Comuna 3,,
-58.4047509990259,-34.6076138012062,1477.0,B-CR-01477,,,Perón Juan D. Tte. Gral. y Castelli,,Coordenada,,4.0,,,,495,CRUCE SEMAFORIZADO,"PERON, JUAN DOMINGO, TTE. GENERAL",,Balvanera,Comuna 3,,
-58.4061261985874,-34.607728200444996,1478.0,B-CR-01478,,,Pueyrredón Av. y Perón Juan D. Tte. Gral.,,Coordenada,,4.0,,,,496,CRUCE SEMAFORIZADO,PUEYRREDON AV.,,Balvanera,Comuna 3,,
-58.4076951985641,-34.607819000749195,1479.0,B-CR-01479,,,Perón Juan D. Tte. Gral. y Boulogne Sur Mer,,Coordenada,,4.0,,,,497,CRUCE SEMAFORIZADO,"PERON, JUAN DOMINGO, TTE. GENERAL",,Balvanera,Comuna 3,,
-58.408727998899096,-34.6125975005649,1480.0,B-CR-01480,,,Alsina Adolfo y La Rioja,,Coordenada,,4.0,,,,498,CRUCE SEMAFORIZADO,"ALSINA, ADOLFO",,Balvanera,Comuna 3,,
-58.4104594986221,-34.6079277008536,1481.0,B-CR-01481,,,Perón Juan D. Tte. Gral. y Jean Jaures,,Coordenada,,4.0,,,,499,CRUCE SEMAFORIZADO,"PERON, JUAN DOMINGO, TTE. GENERAL",,Balvanera,Comuna 3,,
-58.4032817988221,-34.611098400781195,1483.0,B-CR-01483,,,Yrigoyen Hipólito y Saavedra,,Coordenada,,4.0,,,,501,CRUCE SEMAFORIZADO,"YRIGOYEN, HIPOLITO",,Balvanera,Comuna 3,,
-58.4016764988785,-34.6109845009775,1484.0,B-CR-01484,,,Yrigoyen Hipólito y Alberti,,Coordenada,,4.0,,,,502,CRUCE SEMAFORIZADO,"YRIGOYEN, HIPOLITO",,Balvanera,Comuna 3,,
-58.3835104990761,-34.6074301007047,1485.0,B-CR-01485,,,Mitre Bartolomé y Libertad,,Coordenada,,4.0,,,,503,CRUCE SEMAFORIZADO,"MITRE, BARTOLOME",,San Nicolas,Comuna 1,,
-58.3990628987586,-34.6108021004427,1486.0,B-CR-01486,,,Yrigoyen Hipólito y Pichincha,,Coordenada,,4.0,,,,504,CRUCE SEMAFORIZADO,"YRIGOYEN, HIPOLITO",,Balvanera,Comuna 3,,
-58.3849216985881,-34.6075240011864,1487.0,B-CR-01487,,,Mitre Bartolomé y Talcahuano,,Coordenada,,4.0,,,,505,CRUCE SEMAFORIZADO,"MITRE, BARTOLOME",,San Nicolas,Comuna 1,,
-58.39622489922979,-34.6105996009115,1488.0,B-CR-01488,,,Yrigoyen Hipólito y Rincón,,Coordenada,,4.0,,,,506,CRUCE SEMAFORIZADO,"YRIGOYEN, HIPOLITO",,Balvanera,Comuna 3,,
-58.3948041985894,-34.6105081011235,1489.0,B-CR-01489,,,Yrigoyen Hipólito y Sarandí,,Coordenada,,4.0,,,,507,CRUCE SEMAFORIZADO,"YRIGOYEN, HIPOLITO",,Balvanera,Comuna 3,,
-58.411686899105604,-34.611841100713,1490.0,B-CR-01490,,,Yrigoyen Hipólito y 24 de Noviembre,,Coordenada,,4.0,,,,508,CRUCE SEMAFORIZADO,"YRIGOYEN, HIPOLITO",,Balvanera,Comuna 3,,
-58.4102426989526,-34.6115503008733,1491.0,B-CR-01491,,,Yrigoyen Hipólito y Urquiza,,Coordenada,,4.0,,,,509,CRUCE SEMAFORIZADO,"YRIGOYEN, HIPOLITO",,Balvanera,Comuna 3,,
-58.4088151991669,-34.6114570006779,1492.0,B-CR-01492,,,Yrigoyen Hipólito y La Rioja,,Coordenada,,4.0,,,,510,CRUCE SEMAFORIZADO,"YRIGOYEN, HIPOLITO",,Balvanera,Comuna 3,,
-58.4073563992095,-34.6113534003677,1493.0,B-CR-01493,,,Yrigoyen Hipólito y Catamarca,,Coordenada,,4.0,,,,511,CRUCE SEMAFORIZADO,"YRIGOYEN, HIPOLITO",,Balvanera,Comuna 3,,
-58.4058358986765,-34.6112446012348,1494.0,B-CR-01494,,,Jujuy Av. y Yrigoyen Hipólito,,Coordenada,,4.0,,,,512,CRUCE SEMAFORIZADO,JUJUY AV.,,Balvanera,Comuna 3,,
-58.404493699409294,-34.6111802012257,1495.0,B-CR-01495,,,Yrigoyen Hipólito y Misiones,,Coordenada,,4.0,,,,513,CRUCE SEMAFORIZADO,"YRIGOYEN, HIPOLITO",,Balvanera,Comuna 3,,
-58.40558779946,-34.612405500931395,1496.0,B-CR-01496,,,Jujuy Av. y Alsina Adolfo,,Coordenada,,4.0,,,,514,CRUCE SEMAFORIZADO,JUJUY AV.,,Balvanera,Comuna 3,,
-58.3917908994596,-34.6114950011218,1497.0,B-CR-01497,,,Entre Ríos Av. y Alsina Adolfo,,Coordenada,,4.0,,,,515,CRUCE SEMAFORIZADO,ENTRE RIOS AV.,,Monserrat,Comuna 1,,
-58.394749298652,-34.611682300422395,1498.0,B-CR-01498,,,Alsina Adolfo y Sarandí,,Coordenada,,4.0,,,,516,CRUCE SEMAFORIZADO,"ALSINA, ADOLFO",,Balvanera,Comuna 3,,
-58.38747409942929,-34.611175900918106,1499.0,B-CR-01499,,,Sáenz Peña Luis. Av. y Alsina Adolfo,,Coordenada,,4.0,,,,517,CRUCE SEMAFORIZADO,"SAENZ PE\u00d1A, LUIS, PRES.",,Monserrat,Comuna 1,,
-58.4061799992826,-34.608240000864896,1500.0,B-CR-01500,,,Pueyrredón Av. 143,,Coordenada,,4.0,,,,518,CRUCE SEMAFORIZADO,PUEYRREDON AV.,143,Balvanera,Comuna 3,1032,C1032ABB
-58.3728010990854,-34.5984975008042,1501.0,B-CR-01501,,,Córdoba Av. y Reconquista,,Coordenada,,4.0,,,,519,CRUCE SEMAFORIZADO,CORDOBA AV.,,Retiro,Comuna 1,,
-58.3742146987222,-34.5985930007593,1502.0,B-CR-01502,,,Córdoba Av. y San Martín,,Coordenada,,4.0,,,,520,CRUCE SEMAFORIZADO,CORDOBA AV.,,Retiro,Comuna 1,,
-58.375371499188994,-34.5986792007619,1503.0,B-CR-01503,,,Córdoba Av. y Florida,,Coordenada,,4.0,,,,521,CRUCE SEMAFORIZADO,CORDOBA AV.,,Retiro,Comuna 1,,
-58.3768302986869,-34.5987832006595,1504.0,B-CR-01504,,,Córdoba Av. y Maipú,,Coordenada,,4.0,,,,522,CRUCE SEMAFORIZADO,CORDOBA AV.,,Retiro,Comuna 1,,
-58.3782823988513,-34.5989074005508,1505.0,B-CR-01505,,,Córdoba Av. y Esmeralda,,Coordenada,,4.0,,,,523,CRUCE SEMAFORIZADO,CORDOBA AV.,,San Nicolas,Comuna 1,,
-58.3797427990563,-34.5989628006048,1506.0,B-CR-01506,,,Córdoba Av. y Suipacha,,Coordenada,,4.0,,,,524,CRUCE SEMAFORIZADO,CORDOBA AV.,,Retiro,Comuna 1,,
-58.381268998574896,-34.5990330008562,1507.0,B-CR-01507,,,Córdoba Av. y Pellegrini Carlos,,Coordenada,,4.0,,,,525,CRUCE SEMAFORIZADO,CORDOBA AV.,,Retiro,Comuna 1,,
-58.3820937989797,-34.5990660004319,1508.0,B-CR-01508,,,Córdoba Av. y 9 de Julio Av.,,Coordenada,,4.0,,,,526,CRUCE SEMAFORIZADO,CORDOBA AV.,,Retiro,Comuna 1,,
-58.3889406985314,-34.6112858004458,1509.0,B-CR-01509,,,Alsina Adolfo y Virrey Cevallos ,,Coordenada,,4.0,,,,527,CRUCE SEMAFORIZADO,"ALSINA, ADOLFO",,Monserrat,Comuna 1,,
-58.3825262985005,-34.5990852012422,1510.0,B-CR-01510,,,Córdoba Av. y Cerrito,,Coordenada,,4.0,,,,528,CRUCE SEMAFORIZADO,CORDOBA AV.,,Retiro,Comuna 1,,
-58.3813441994271,-34.597833701038105,1511.0,B-CR-01511,,,Pellegrini Carlos y Paraguay,,Coordenada,,4.0,,,,529,CRUCE SEMAFORIZADO,"PELLEGRINI, CARLOS",,Retiro,Comuna 1,,
-58.382162898617004,-34.597899400429,1512.0,B-CR-01512,,,9 de Julio Av. y Paraguay,,Coordenada,,4.0,,,,530,CRUCE SEMAFORIZADO,9 DE JULIO AV.,,Retiro,Comuna 1,,
-58.379830999327794,-34.5977101009613,1513.0,B-CR-01513,,,Suipacha y Paraguay,,Coordenada,,4.0,,,,531,CRUCE SEMAFORIZADO,SUIPACHA,,Retiro,Comuna 1,,
-58.38260069860289,-34.597926800393,1514.0,B-CR-01514,,,Cerrito y Paraguay,,Coordenada,,4.0,,,,532,CRUCE SEMAFORIZADO,CERRITO,,Retiro,Comuna 1,,
-58.3769087990569,-34.5975792003634,1515.0,B-CR-01515,,,Paraguay y Maipú,,Coordenada,,4.0,,,,533,CRUCE SEMAFORIZADO,PARAGUAY,,Retiro,Comuna 1,,
-58.378362999186706,-34.5976425010932,1516.0,B-CR-01516,,,Paraguay y Esmeralda,,Coordenada,,4.0,,,,534,CRUCE SEMAFORIZADO,PARAGUAY,,Retiro,Comuna 1,,
-58.375378099356794,-34.599871400482,1520.0,B-CR-01520,,,Florida y Viamonte ,,Coordenada,,4.0,,,,535,CRUCE SEMAFORIZADO,FLORIDA,,San Nicolas,Comuna 1,,
-58.381192898714104,-34.6002107012239,1521.0,B-CR-01521,,,Pellegrini Carlos y Viamonte,,Coordenada,,4.0,,,,536,CRUCE SEMAFORIZADO,"PELLEGRINI, CARLOS",,San Nicolas,Comuna 1,,
-58.3820330993982,-34.600273001173,1522.0,B-CR-01522,,,9 de Julio Av. y Viamonte,,Coordenada,,4.0,,,,537,CRUCE SEMAFORIZADO,9 DE JULIO AV.,,San Nicolas,Comuna 1,,
-58.3824143985647,-34.6003191009243,1523.0,B-CR-01523,,,Cerrito y Viamonte,,Coordenada,,4.0,,,,538,CRUCE SEMAFORIZADO,CERRITO,,San Nicolas,Comuna 1,,
-58.3767977988215,-34.599950701193,1524.0,B-CR-01524,,,Viamonte y Maipú,,Coordenada,,4.0,,,,539,CRUCE SEMAFORIZADO,VIAMONTE,,San Nicolas,Comuna 1,,
-58.3811045990487,-34.601351300602104,1525.0,B-CR-01525,,,Pellegrini Carlos y Tucumán,,Coordenada,,4.0,,,,540,CRUCE SEMAFORIZADO,"PELLEGRINI, CARLOS",,San Nicolas,Comuna 1,,
-58.38195899884979,-34.60137960093,1526.0,B-CR-01526,,,9 de Julio Av. y Tucumán,,Coordenada,,4.0,,,,541,CRUCE SEMAFORIZADO,9 DE JULIO AV.,,San Nicolas,Comuna 1,,
-58.382366998498,-34.601391300513804,1527.0,B-CR-01527,,,Cerrito y Tucumán,,Coordenada,,4.0,,,,542,CRUCE SEMAFORIZADO,CERRITO,,San Nicolas,Comuna 1,,
-58.381047399398604,-34.6027208012252,1529.0,B-CR-01529,,,Lavalle y Pellegrini Carlos,,Coordenada,,4.0,,,,543,CRUCE SEMAFORIZADO,LAVALLE,,San Nicolas,Comuna 1,,
-58.38192119853311,-34.602548001220796,1530.0,B-CR-01530,,,9 de Julio Av. y Lavalle,,Coordenada,,4.0,,,,544,CRUCE SEMAFORIZADO,9 DE JULIO AV.,,San Nicolas,Comuna 1,,
